[
  {
    "id": "245233",
    "name": "WILLIAM D ABATE SCHOOL",
    "address": "60 KOSSUTH STREET PROVIDENCE RI 02909",
    "last_inspection": "03-09-2026",
    "license_type": "Food Service (Non-Profit)",
    "lat": 41.822175,
    "lng": -71.447478,
    "violation_count": 0
  },
  {
    "id": "253561",
    "name": "DELSESTO MIDDLE SCHOOL",
    "address": "152 SPRINGFIELD STREET PROVIDENCE RI 02909",
    "last_inspection": "03-09-2026",
    "license_type": "Food Service (Non-Profit)",
    "lat": 41.818484,
    "lng": -71.4660126,
    "violation_count": 3
  },
  {
    "id": "257160",
    "name": "DR. JORGE ALVAREZ HIGH SCHOOL",
    "address": "375 ADELAIDE AVENUE PROVIDENCE RI 02907",
    "last_inspection": "03-09-2026",
    "license_type": "Food Service (Non-Profit)",
    "lat": 41.7942414,
    "lng": -71.4305557,
    "violation_count": 0
  },
  {
    "id": "263572",
    "name": "ELEANOR SLATER HOSPITAL",
    "address": "111 HOWARD AVE AM BLDG 050 CRANSTON RI 02920",
    "last_inspection": "03-09-2026",
    "license_type": "Food Service (Non-Profit)",
    "lat": 41.7447052,
    "lng": -71.4632247,
    "violation_count": 0
  },
  {
    "id": "865688",
    "name": "NARDUCCI LEARNING CENTER",
    "address": "101 PAUL STREET PROVIDENCE RI 02904",
    "last_inspection": "03-09-2026",
    "license_type": "Food Service (Non-Profit)",
    "lat": 41.854907,
    "lng": -71.4201592,
    "violation_count": 1
  },
  {
    "id": "937567",
    "name": "SPEEDWAY NO 2816",
    "address": "61 AIRPORT ROAD WARWICK RI 02889",
    "last_inspection": "03-09-2026",
    "license_type": "Cash Registers - 3-5",
    "lat": 41.7336378,
    "lng": -71.4089417,
    "violation_count": 5
  },
  {
    "id": "244938",
    "name": "MARGARET I ROBERTSON SCHOOL",
    "address": "135 HUNT STREET CENTRAL FALLS RI 02863",
    "last_inspection": "03-06-2026",
    "license_type": "Food Service (Non-Profit)",
    "lat": 41.8965253,
    "lng": -71.3896397,
    "violation_count": 0
  },
  {
    "id": "254149",
    "name": "LEARNING COMMUNITY CHARTER SCHOOL INC",
    "address": "21 LINCOLN AVENUE CENTRAL FALLS RI 02863",
    "last_inspection": "03-06-2026",
    "license_type": "Food Service (Non-Profit)",
    "lat": 41.8925256,
    "lng": -71.3879964,
    "violation_count": 3
  },
  {
    "id": "257624",
    "name": "HUNGRY HAVEN",
    "address": "5000 SOUTH COUNTY TRAIL CHARLESTOWN RI 02813",
    "last_inspection": "03-06-2026",
    "license_type": "Seats -  Less than 50",
    "lat": 41.3869235,
    "lng": -71.6403772,
    "violation_count": 0
  },
  {
    "id": "939297",
    "name": "SOCIETY COFFEE BAR",
    "address": "500 N BROADWAY EAST PROVIDENCE RI 02914",
    "last_inspection": "03-06-2026",
    "license_type": "Seats -  Less than 50",
    "lat": 41.828011,
    "lng": -71.363296,
    "violation_count": 2
  },
  {
    "id": "238952",
    "name": "RHODE ISLAND HOSPITAL MAIN PATIENT",
    "address": "RHODE ISLAND HOSPITAL MAIN PATIENT PROVIDENCE RI 02903",
    "last_inspection": "03-05-2026",
    "license_type": "Food Service (Non-Profit)",
    "violation_count": 4
  },
  {
    "id": "240197",
    "name": "WARWICK FIRE FIGHTERS ASSOCIATION",
    "address": "750 WARWICK AVENUE WARWICK RI 02888",
    "last_inspection": "03-05-2026",
    "license_type": "Seats -  Less than 50",
    "lat": 41.755472,
    "lng": -71.404292,
    "violation_count": 2
  },
  {
    "id": "240934",
    "name": "SPAIN RESTAURANT",
    "address": "1144 OCEAN ROAD NARRAGANSETT RI 02882",
    "last_inspection": "03-05-2026",
    "license_type": "Seats - 50 or More",
    "lat": 41.3856002,
    "lng": -71.477768,
    "violation_count": 9
  },
  {
    "id": "243111",
    "name": "ROBERTSON ELEMENTARY SCHOOL",
    "address": "70 NAUSAUKET AVENUE WARWICK RI 02888",
    "last_inspection": "03-05-2026",
    "license_type": "Food Service (Non-Profit)",
    "lat": 41.698622754218,
    "lng": -71.440561021582,
    "violation_count": 0
  },
  {
    "id": "244507",
    "name": "J & T'S GRILL INC",
    "address": "98 GEORGE WATERMAN ROAD JOHNSTON RI 02919",
    "last_inspection": "03-05-2026",
    "license_type": "Seats -  Less than 50",
    "lat": 41.842689,
    "lng": -71.48559,
    "violation_count": 10
  },
  {
    "id": "245009",
    "name": "MIDDLETOWN HIGH SCHOOL",
    "address": "130 VALLEY ROAD MIDDLETOWN RI 02842",
    "last_inspection": "03-05-2026",
    "license_type": "Food Service (Non-Profit)",
    "lat": 41.5173097,
    "lng": -71.2872053,
    "violation_count": 2
  },
  {
    "id": "245175",
    "name": "AQUIDNECK ELEMENTARY SCHOOL",
    "address": "70 RESERVOIR AVENUE MIDDLETOWN RI 02840",
    "last_inspection": "03-05-2026",
    "license_type": "Food Service (Non-Profit)",
    "lat": 41.495942644086,
    "lng": -71.282176483599,
    "violation_count": 2
  },
  {
    "id": "252263",
    "name": "PAPA JOE'S WRAP SHACK",
    "address": "567 HOPE STREET BRISTOL RI 02809",
    "last_inspection": "03-05-2026",
    "license_type": "Seats -  Less than 50",
    "lat": 41.6718241,
    "lng": -71.2771839,
    "violation_count": 3
  },
  {
    "id": "253563",
    "name": "WAKEFIELD HILLS ELEMENTARY SCHOOL",
    "address": "505 WAKEFIELD STREET WEST WARWICK RI 02893",
    "last_inspection": "03-05-2026",
    "license_type": "Food Service (Non-Profit)",
    "lat": 41.7253273,
    "lng": -71.5063025,
    "violation_count": 0
  },
  {
    "id": "254675",
    "name": "JACKY'S GALAXIE RESTAURANT",
    "address": "383 METACOM AVENUE BRISTOL RI 02809",
    "last_inspection": "03-05-2026",
    "license_type": "Caterer or Commissary",
    "lat": 41.679349,
    "lng": -71.2603943,
    "violation_count": 5
  },
  {
    "id": "256737",
    "name": "ORCHARD FARMS ELEMENTARY",
    "address": "1555 SCITUATE AVENUE CRANSTON RI 02921",
    "last_inspection": "03-05-2026",
    "license_type": "Food Service (Non-Profit)",
    "lat": 41.7741798,
    "lng": -71.5307111,
    "violation_count": 0
  },
  {
    "id": "258234",
    "name": "COLT ANDREWS ELEMENTARY SCHOOL",
    "address": "574 HOPE STREET BRISTOL RI 02809",
    "last_inspection": "03-05-2026",
    "license_type": "Food Service (Non-Profit)",
    "lat": 41.672129,
    "lng": -71.277073,
    "violation_count": 1
  },
  {
    "id": "258441",
    "name": "RODRIGUEZ MEAT MARKET",
    "address": "400 HARTFORD AVENUE PROVIDENCE RI 02909",
    "last_inspection": "03-05-2026",
    "license_type": "Cash Registers - 1-2",
    "lat": 41.818221,
    "lng": -71.457155,
    "violation_count": 0
  },
  {
    "id": "260575",
    "name": "BAMBOO GARDEN",
    "address": "944 BOSTON NECK ROAD NARRAGANSETT RI 02882",
    "last_inspection": "03-05-2026",
    "license_type": "Seats -  Less than 50",
    "lat": 41.477915,
    "lng": -71.43594,
    "violation_count": 7
  },
  {
    "id": "265427",
    "name": "MI QUISQUEYA SUPERMARKET",
    "address": "933 BROAD ST PROVIDENCE RI 02907",
    "last_inspection": "03-05-2026",
    "license_type": "Cash Registers - 1-2",
    "lat": 41.7990477,
    "lng": -71.41556,
    "violation_count": 25
  },
  {
    "id": "358719",
    "name": "EBCAP HEAD START AT MARY V QUIRK SCHOOL",
    "address": "790 MAIN ST WARREN RI 02885",
    "last_inspection": "03-05-2026",
    "license_type": "Food Service (Non-Profit)",
    "lat": 41.7224223,
    "lng": -71.2811739,
    "violation_count": 0
  },
  {
    "id": "413304",
    "name": "7 SISTERS RESTAURANT",
    "address": "292 POCASSET AVE PROVIDENCE RI 02909",
    "last_inspection": "03-05-2026",
    "license_type": "Caterer or Commissary",
    "lat": 41.8070803,
    "lng": -71.4565127,
    "violation_count": 12
  },
  {
    "id": "612464",
    "name": "FAMILY DOLLAR #31982",
    "address": "989 MAIN ST WEST WARWICK RI 02893",
    "last_inspection": "03-05-2026",
    "license_type": "Cash Registers - 3-5",
    "lat": 41.7150634,
    "lng": -71.5240614,
    "violation_count": 0
  },
  {
    "id": "714052",
    "name": "DANGELO",
    "address": "875 RESERVOIR AVE CRANSTON RI 02910",
    "last_inspection": "03-05-2026",
    "license_type": "Seats -  Less than 50",
    "lat": 41.7771867,
    "lng": -71.4472397,
    "violation_count": 1
  },
  {
    "id": "714065",
    "name": "ACHIEVEMENT FIRST RHODE ISLAND",
    "address": "370 HARTFORD AVE PROVIDENCE RI 02909",
    "last_inspection": "03-05-2026",
    "license_type": "Food Service (Non-Profit)",
    "lat": 41.81811,
    "lng": -71.456596,
    "violation_count": 3
  },
  {
    "id": "770687",
    "name": "MR CHICKEN",
    "address": "275 CHILD ST WARREN RI 02885",
    "last_inspection": "03-05-2026",
    "license_type": "Seats - 50 or More",
    "lat": 41.7296173,
    "lng": -71.2732206,
    "violation_count": 4
  },
  {
    "id": "789903",
    "name": "CHILDRENS WORKSHOP",
    "address": "410 CHILD ST WARREN RI 02885",
    "last_inspection": "03-05-2026",
    "license_type": "Food Service (Non-Profit)",
    "lat": 41.7290496,
    "lng": -71.2672018,
    "violation_count": 2
  },
  {
    "id": "790401",
    "name": "ELMWOOD SUPER MARKET",
    "address": "366 ELMWOOD AVE PROVIDENCE RI 02907",
    "last_inspection": "03-05-2026",
    "license_type": "Cash Registers - 1-2",
    "lat": 41.802229,
    "lng": -71.426002,
    "violation_count": 5
  },
  {
    "id": "865609",
    "name": "A AND A MART LLC",
    "address": "2701 HARTFORD AVE JOHNSTON RI 02919",
    "last_inspection": "03-05-2026",
    "license_type": "Cash Registers - 1-2",
    "lat": 41.833415,
    "lng": -71.557341,
    "violation_count": 5
  },
  {
    "id": "865806",
    "name": "THE PATIO ON BROADWAY",
    "address": "166 BROADWAY PROVIDENCE RI 02903",
    "last_inspection": "03-05-2026",
    "license_type": "Seats - 50 or More",
    "lat": 41.8212568,
    "lng": -71.4227867,
    "violation_count": 5
  },
  {
    "id": "866130",
    "name": "VARSITY LUXURY SPORTS BAR",
    "address": "289 ATWELLS AVENUE PROVIDENCE RI 02903",
    "last_inspection": "03-05-2026",
    "license_type": "Seats - 50 or More",
    "lat": 41.8226501,
    "lng": -71.4185664,
    "violation_count": 19
  },
  {
    "id": "866362",
    "name": "AFRIQUE D'LOUNGE, INC.",
    "address": "126 SPRUCE STREET PROVIDENCE RI 02903",
    "last_inspection": "03-05-2026",
    "license_type": "Caterer or Commissary",
    "lat": 41.8242801,
    "lng": -71.427631,
    "violation_count": 1
  },
  {
    "id": "936889",
    "name": "UNION SUPERMARKET",
    "address": "895 ELMWOOD AVENUE PROVIDENCE RI 02907",
    "last_inspection": "03-09-2026",
    "license_type": "Cash Registers - 3-5",
    "lat": 41.7879694,
    "lng": -71.4211191,
    "violation_count": 10
  },
  {
    "id": "937119",
    "name": "BAJAS FRESH GRILL",
    "address": "866 TIOGUE AVENUE COVENTRY RI 02816",
    "last_inspection": "03-05-2026",
    "license_type": "Seats -  Less than 50",
    "lat": 41.680788,
    "lng": -71.5677695,
    "violation_count": 0
  },
  {
    "id": "937743",
    "name": "MARTIN LUTHER KING COMMUNITY CENTER",
    "address": "130 VALLEY RD MIDDLETOWN RI 02842",
    "last_inspection": "03-05-2026",
    "license_type": "Food Service (Non-Profit)",
    "lat": 41.5173097,
    "lng": -71.2872053,
    "violation_count": 0
  },
  {
    "id": "937966",
    "name": "MINDY'S PLACE",
    "address": "72 EAST MAIN RD MIDDLETOWN RI 02842",
    "last_inspection": "03-05-2026",
    "license_type": "Seats -  Less than 50",
    "lat": 41.5398909,
    "lng": -71.2644423,
    "violation_count": 9
  },
  {
    "id": "937968",
    "name": "DOMINO'S PIZZA",
    "address": "51 OLD TOWER HILL RD WAKEFIELD RI 02879",
    "last_inspection": "03-05-2026",
    "license_type": "Seats -  Less than 50",
    "lat": 41.4419655,
    "lng": -71.4840195,
    "violation_count": 2
  },
  {
    "id": "938552",
    "name": "BLACKSTONE ON THE HILL",
    "address": "262 ATWELLS AVE PROVIDENCE RI 02906",
    "last_inspection": "03-05-2026",
    "license_type": "Seats -  Less than 50",
    "lat": 41.8234962,
    "lng": -71.4267213,
    "violation_count": 6
  },
  {
    "id": "939269",
    "name": "SCOTTI'S SALUMERIA",
    "address": "4654 POST RD EAST GREENWICH RI 02818",
    "last_inspection": "03-05-2026",
    "license_type": "Seats - 50 or More",
    "lat": 41.6457009,
    "lng": -71.4634853,
    "violation_count": 4
  },
  {
    "id": "939315",
    "name": "KRAKATOA GARDEN LLC",
    "address": "HOPE & MAIN WARREN RI 02885",
    "last_inspection": "03-05-2026",
    "license_type": "Caterer or Commissary",
    "lat": 41.732568453955,
    "lng": -71.283063871892,
    "violation_count": 0
  },
  {
    "id": "939354",
    "name": "THE WOODEN SPOON",
    "address": "8 LIMA DR WESTERLY RI 02891",
    "last_inspection": "03-05-2026",
    "license_type": "Cottage Food Manufacture",
    "lat": 41.4098112,
    "lng": -71.8018409,
    "violation_count": 0
  },
  {
    "id": "239141",
    "name": "RICCI EL MIDDLE SCHOOL",
    "address": "51 INTERVALE AVENUE NORTH PROVIDENCE RI 02911",
    "last_inspection": "03-04-2026",
    "license_type": "Food Service (Non-Profit)",
    "lat": 41.8481637,
    "lng": -71.4711936,
    "violation_count": 1
  },
  {
    "id": "239156",
    "name": "JOSEPH A WHELAN SCHOOL",
    "address": "1440 MINERAL SPRING AVENUE NORTH PROVIDENCE RI 02904",
    "last_inspection": "03-04-2026",
    "license_type": "Food Service (Non-Profit)",
    "lat": 41.8662908,
    "lng": -71.442224,
    "violation_count": 1
  },
  {
    "id": "239250",
    "name": "PEACE DALE ELEMENTARY",
    "address": "109 KERSEY ROAD SOUTH KINGSTOWN RI 02883",
    "last_inspection": "03-04-2026",
    "license_type": "Food Service (Non-Profit)",
    "lat": 41.4529952,
    "lng": -71.5014765,
    "violation_count": 1
  },
  {
    "id": "239421",
    "name": "WEST KINGSTOWN ELEMENTARY",
    "address": "3119 MINISTERIAL ROAD SOUTH KINGSTOWN RI 02892",
    "last_inspection": "03-04-2026",
    "license_type": "Food Service (Non-Profit)",
    "lat": 41.4783237,
    "lng": -71.5504613,
    "violation_count": 3
  },
  {
    "id": "240696",
    "name": "ROGERS HIGH SCHOOL",
    "address": "15 WICKHAM ROAD NEWPORT RI 02840",
    "last_inspection": "03-04-2026",
    "license_type": "Food Service (Non-Profit)",
    "lat": 41.4687799,
    "lng": -71.3213723,
    "violation_count": 0
  },
  {
    "id": "242273",
    "name": "CEDAR HILL SCHOOL",
    "address": "35 RED CHIMNEY DRIVE WARWICK RI 02886",
    "last_inspection": "03-04-2026",
    "license_type": "Food Service (Non-Profit)",
    "lat": 41.6840983,
    "lng": -71.4640842,
    "violation_count": 0
  },
  {
    "id": "242804",
    "name": "BUCKLIN PRODUCTION KITCHEN",
    "address": "249 BUCKLIN STREET PROVIDENCE RI 02907",
    "last_inspection": "03-04-2026",
    "license_type": "Food Service (Non-Profit)",
    "lat": 41.8883006,
    "lng": -71.3551232,
    "violation_count": 4
  },
  {
    "id": "242805",
    "name": "LIMA KITCHEN",
    "address": "249 BUCKLIN STREET PROVIDENCE RI 02907",
    "last_inspection": "03-04-2026",
    "license_type": "Food Service (Non-Profit)",
    "lat": 41.8883006,
    "lng": -71.3551232,
    "violation_count": 0
  },
  {
    "id": "242884",
    "name": "NORWOOD ELEMENTARY SCHOOL",
    "address": "266 NORWOOD AVENUE WARWICK RI 02888",
    "last_inspection": "03-04-2026",
    "license_type": "Food Service (Non-Profit)",
    "lat": 41.7507428,
    "lng": -71.4268117,
    "violation_count": 0
  },
  {
    "id": "244535",
    "name": "WEST WARWICK HIGH SCHOOL",
    "address": "WEBSTER KNIGHT DRIVE WEST WARWICK RI 02893",
    "last_inspection": "03-04-2026",
    "license_type": "Food Service (Non-Profit)",
    "lat": 41.707028,
    "lng": -71.5165424,
    "violation_count": 1
  },
  {
    "id": "244679",
    "name": "ASHAWAY ELEMENTARY SCHOOL",
    "address": "12 A HILLSIDE AVENUE HOPKINTON RI 02804",
    "last_inspection": "03-04-2026",
    "license_type": "Food Service (Non-Profit)",
    "lat": 41.4196274,
    "lng": -71.7914966,
    "violation_count": 0
  },
  {
    "id": "244689",
    "name": "RICHMOND ELEMENTARY SCHOOL",
    "address": "190 KINGSTOWN ROAD RICHMOND RI 02898",
    "last_inspection": "03-04-2026",
    "license_type": "Food Service (Non-Profit)",
    "lat": 41.500978,
    "lng": -71.6619624,
    "violation_count": 1
  },
  {
    "id": "244829",
    "name": "ELIZABETH BALDWIN SCHOOL",
    "address": "50 WHITMAN STREET PAWTUCKET RI 02860",
    "last_inspection": "03-04-2026",
    "license_type": "Food Service (Non-Profit)",
    "lat": 41.8682415,
    "lng": -71.3963816,
    "violation_count": 1
  },
  {
    "id": "244854",
    "name": "GREENE SCHOOL",
    "address": "285 SMITHFIELD AVENUE PAWTUCKET RI 02860",
    "last_inspection": "03-04-2026",
    "license_type": "Food Service (Non-Profit)",
    "lat": 41.8675722,
    "lng": -71.4121434,
    "violation_count": 0
  },
  {
    "id": "245154",
    "name": "HUGH COLE SCHOOL",
    "address": "ASYLUM ROAD WARREN RI 02885",
    "last_inspection": "03-04-2026",
    "license_type": "Food Service (Non-Profit)",
    "lat": 41.7255629,
    "lng": -71.2551068,
    "violation_count": 1
  },
  {
    "id": "245171",
    "name": "KICKEMUIT MIDDLE SCHOOL",
    "address": "525 CHILD STREET WARREN RI 02885",
    "last_inspection": "03-04-2026",
    "license_type": "Food Service (Non-Profit)",
    "lat": 41.7301676,
    "lng": -71.259807,
    "violation_count": 3
  },
  {
    "id": "245236",
    "name": "NEWPORT AREA CAREER AND TECH CTR",
    "address": "15 WICKHAM ROAD NEWPORT RI 02840",
    "last_inspection": "03-04-2026",
    "license_type": "Food Service (Non-Profit)",
    "lat": 41.4687799,
    "lng": -71.3213723,
    "violation_count": 7
  },
  {
    "id": "245612",
    "name": "ROGER WILLIAMS MIDDLE SCHOOL",
    "address": "278 THURBERS AVENUE PROVIDENCE RI 02905",
    "last_inspection": "03-04-2026",
    "license_type": "Food Service (Non-Profit)",
    "lat": 41.7987533,
    "lng": -71.4113541,
    "violation_count": 0
  },
  {
    "id": "246106",
    "name": "HONG KONG RESTAURANT",
    "address": "77 WASHINGTON STREET WEST WARWICK RI 02893",
    "last_inspection": "03-04-2026",
    "license_type": "Seats - 50 or More",
    "lat": 41.7031373,
    "lng": -71.5258468,
    "violation_count": 5
  },
  {
    "id": "252851",
    "name": "SOUTH KINGSTOWN HIGH SCHOOL",
    "address": "215 COLUMBIA STREET SOUTH KINGSTOWN RI 02879",
    "last_inspection": "03-04-2026",
    "license_type": "Food Service (Non-Profit)",
    "lat": 41.4460251,
    "lng": -71.4948161,
    "violation_count": 2
  },
  {
    "id": "258355",
    "name": "SHELL",
    "address": "2128 ELMWOOD AVENUE WARWICK RI 02888",
    "last_inspection": "03-04-2026",
    "license_type": "Cash Registers - 1-2",
    "lat": 41.7495563,
    "lng": -71.4222433,
    "violation_count": 2
  },
  {
    "id": "259298",
    "name": "CROWNE PLAZA HOTEL AT THE CROSSINGS",
    "address": "801 GREENWICH AVENUE WARWICK RI 02886",
    "last_inspection": "03-04-2026",
    "license_type": "Caterer or Commissary",
    "lat": 41.7149513,
    "lng": -71.4676752,
    "violation_count": 4
  },
  {
    "id": "260216",
    "name": "DIEGOS",
    "address": "11 BOWENS WHARF NEWPORT RI 02840",
    "last_inspection": "03-04-2026",
    "license_type": "Seats -  Less than 50",
    "lat": 41.486609167455,
    "lng": -71.31555890617,
    "violation_count": 4
  },
  {
    "id": "415421",
    "name": "MIKE AND GELS PIZZA",
    "address": "3003 W SHORE RD WARWICK RI 02886",
    "last_inspection": "03-04-2026",
    "license_type": "Seats -  Less than 50",
    "lat": 41.7023043,
    "lng": -71.4308325,
    "violation_count": 1
  },
  {
    "id": "612176",
    "name": "PROVIDENCE BILTMORE HOTEL",
    "address": "11 DORRANCE ST PROVIDENCE RI 02903",
    "last_inspection": "03-04-2026",
    "license_type": "Caterer or Commissary",
    "lat": 41.8242753,
    "lng": -71.413425,
    "violation_count": 4
  },
  {
    "id": "663210",
    "name": "NACHO MAMMAS",
    "address": "18 MAPLE AVE BARRINGTON RI 02806",
    "last_inspection": "03-04-2026",
    "license_type": "Seats -  Less than 50",
    "lat": 41.7395956,
    "lng": -71.3089779,
    "violation_count": 4
  },
  {
    "id": "789698",
    "name": "COFFEE CONNECTION",
    "address": "32 CUSTOM HOUSE UNIT 1 PROVIDENCE RI 02903",
    "last_inspection": "03-04-2026",
    "license_type": "Caterer or Commissary",
    "lat": 41.9581107,
    "lng": -71.4432138,
    "violation_count": 4
  },
  {
    "id": "789758",
    "name": "WISE GUYS WEST WARWICK",
    "address": "289 COWESETT AVE WEST WARWICK RI 02893",
    "last_inspection": "03-04-2026",
    "license_type": "Seats -  Less than 50",
    "lat": 41.6837686,
    "lng": -71.506383,
    "violation_count": 4
  },
  {
    "id": "790149",
    "name": "THE JEFFERSON SPEAKEASY",
    "address": "137 KILVERT ST WARWICK RI 02886",
    "last_inspection": "03-04-2026",
    "license_type": "Seats - 50 or More",
    "lat": 41.7299658,
    "lng": -71.4430512,
    "violation_count": 2
  },
  {
    "id": "856581",
    "name": "KFC",
    "address": "824 TIOGUE AVE COVENTRY RI 02816",
    "last_inspection": "03-04-2026",
    "license_type": "Seats - 50 or More",
    "lat": 41.6810232,
    "lng": -71.5658833,
    "violation_count": 1
  },
  {
    "id": "856724",
    "name": "DON ARMANDOS MEAT MARKET",
    "address": "265 PINE ST PAWTUCKET RI 02860",
    "last_inspection": "03-04-2026",
    "license_type": "Cash Registers - 3-5",
    "lat": 41.8777661,
    "lng": -71.3903764,
    "violation_count": 4
  },
  {
    "id": "856941",
    "name": "DOMINICS PLACE LLC",
    "address": "1270 MINERAL SPRING AVE NORTH PROVIDENCE RI 02904",
    "last_inspection": "03-04-2026",
    "license_type": "Seats -  Less than 50",
    "lat": 41.8678495,
    "lng": -71.4347888,
    "violation_count": 3
  },
  {
    "id": "857289",
    "name": "BELLA LUNA",
    "address": "1839 SMITH ST NORTH PROVIDENCE RI 02911",
    "last_inspection": "03-04-2026",
    "license_type": "Seats - 50 or More",
    "lat": 41.8548209,
    "lng": -71.474712,
    "violation_count": 5
  },
  {
    "id": "857479",
    "name": "SWEETGREEN",
    "address": "GARDEN CITY CENTER CRANSTON RI 02920",
    "last_inspection": "03-04-2026",
    "license_type": "Seats -  Less than 50",
    "lat": 41.7625695,
    "lng": -71.4570097,
    "violation_count": 0
  },
  {
    "id": "866154",
    "name": "ACHIEVEMENT FIRST",
    "address": "234 DABOLL STREET PROVIDENCE RI 02907",
    "last_inspection": "03-04-2026",
    "license_type": "Food Service (Non-Profit)",
    "lat": 41.8038236,
    "lng": -71.4282097,
    "violation_count": 0
  },
  {
    "id": "936827",
    "name": "EL PAPA RESTAURANT CAFETERIA",
    "address": "1262 BROAD STREET PROVIDENCE RI 02905",
    "last_inspection": "03-04-2026",
    "license_type": "Seats -  Less than 50",
    "lat": 41.792304,
    "lng": -71.407182,
    "violation_count": 15
  },
  {
    "id": "937063",
    "name": "LINA MART",
    "address": "1729 SMITH STREET NORTH PROVIDENCE RI 02911",
    "last_inspection": "03-04-2026",
    "license_type": "Cash Registers - 1-2",
    "lat": 41.854416,
    "lng": -71.469985,
    "violation_count": 2
  },
  {
    "id": "938206",
    "name": "NEW DRAGON AND DRAGON",
    "address": "878 POST RD WARWICK RI 02888",
    "last_inspection": "03-04-2026",
    "license_type": "Seats -  Less than 50",
    "lat": 41.7516485,
    "lng": -71.4170342,
    "violation_count": 9
  },
  {
    "id": "938883",
    "name": "PATRIARCA RESTAURANT INC",
    "address": "1249 CHALKSTONE AVE PROVIDENCE RI 02908",
    "last_inspection": "03-04-2026",
    "license_type": "Seats -  Less than 50",
    "lat": 41.8327466,
    "lng": -71.4501226,
    "violation_count": 2
  },
  {
    "id": "939258",
    "name": "PENA MARKET",
    "address": "1115 BROAD ST  PROVIDENCE RI 02905",
    "last_inspection": "03-04-2026",
    "license_type": "Cash Registers - 1-2",
    "lat": 41.7951447,
    "lng": -71.4110243,
    "violation_count": 2
  },
  {
    "id": "939328",
    "name": "REALE'S GROCERY",
    "address": "122 HIGH STREET WESTERLY RI 02891",
    "last_inspection": "03-04-2026",
    "license_type": "Cash Registers - 1-2",
    "lat": 41.3822786,
    "lng": -71.825369,
    "violation_count": 2
  },
  {
    "id": "239844",
    "name": "KENTUCKY FRIED CHICKEN",
    "address": "767 AIRPORT ROAD WARWICK RI 02886",
    "last_inspection": "03-03-2026",
    "license_type": "Seats -  Less than 50",
    "lat": 41.7329369,
    "lng": -71.4348876,
    "violation_count": 2
  },
  {
    "id": "243150",
    "name": "ELLA RISK ELEMENTARY SCHOOL",
    "address": "949 DEXTER STREET CENTRAL FALLS RI 02863",
    "last_inspection": "03-03-2026",
    "license_type": "Food Service (Non-Profit)",
    "lat": 41.889638,
    "lng": -71.399979,
    "violation_count": 1
  },
  {
    "id": "243370",
    "name": "WINMAN JR HIGH SCHOOL",
    "address": "575 CENTERVILLE ROAD WARWICK RI 02886",
    "last_inspection": "03-03-2026",
    "license_type": "Food Service (Non-Profit)",
    "lat": 41.6971626,
    "lng": -71.4817219,
    "violation_count": 0
  },
  {
    "id": "243657",
    "name": "OLYMPIA FAMOUS PIZZA",
    "address": "140 MAIN STREET BURRILLVILLE RI 02859",
    "last_inspection": "03-03-2026",
    "license_type": "Seats -  Less than 50",
    "lat": 41.9582711,
    "lng": -71.7015881,
    "violation_count": 0
  },
  {
    "id": "244950",
    "name": "AGNES LITTLE SCHOOL",
    "address": "60 SOUTH BEND STREET PAWTUCKET RI 02860",
    "last_inspection": "03-03-2026",
    "license_type": "Food Service (Non-Profit)",
    "lat": 41.8767198,
    "lng": -71.3718355,
    "violation_count": 2
  },
  {
    "id": "244970",
    "name": "HENRY J WINTERS ELEMENTARY SCHOOL",
    "address": "481 BROADWAY PAWTUCKET RI 02860",
    "last_inspection": "03-03-2026",
    "license_type": "Food Service (Non-Profit)",
    "lat": 41.886523,
    "lng": -71.375182,
    "violation_count": 1
  },
  {
    "id": "244976",
    "name": "JOSEPH JENKS JUNIOR HIGH SCHOOL",
    "address": "350 DIVISION STREET PAWTUCKET RI 02860",
    "last_inspection": "03-03-2026",
    "license_type": "Food Service (Non-Profit)",
    "lat": 41.8761272,
    "lng": -71.3707374,
    "violation_count": 3
  },
  {
    "id": "245085",
    "name": "RIVERSIDE MIDDLE SCHOOL",
    "address": "179 FORBES STREET EAST PROVIDENCE RI 02915",
    "last_inspection": "03-03-2026",
    "license_type": "Food Service (Non-Profit)",
    "lat": 41.7803241,
    "lng": -71.3449337,
    "violation_count": 1
  },
  {
    "id": "245091",
    "name": "SILVER SPRING SCHOOL",
    "address": "120 SILVER SPRING AVENUE EAST PROVIDENCE RI 02915",
    "last_inspection": "03-03-2026",
    "license_type": "Food Service (Non-Profit)",
    "lat": 41.7982958,
    "lng": -71.3692757,
    "violation_count": 1
  },
  {
    "id": "245721",
    "name": "RHODE ISLAND BILLIARDS",
    "address": "2026 SMITH STREET NORTH PROVIDENCE RI 02911",
    "last_inspection": "03-03-2026",
    "license_type": "Seats -  Less than 50",
    "lat": 41.8575002,
    "lng": -71.4844745,
    "violation_count": 3
  },
  {
    "id": "247652",
    "name": "DAVES FRESH MARKETPLACE OF AIRPORT ROAD INC",
    "address": "18 AIRPORT ROAD WARWICK RI 02889",
    "last_inspection": "03-03-2026",
    "license_type": "Cash Registers - 3-5",
    "lat": 41.7331133,
    "lng": -71.4079444,
    "violation_count": 3
  },
  {
    "id": "250674",
    "name": "TIMES 2 ACADEMY",
    "address": "50 FILLMORE STREET PROVIDENCE RI 029083105",
    "last_inspection": "03-03-2026",
    "license_type": "Food Service (Non-Profit)",
    "lat": 41.8385064,
    "lng": -71.4222168,
    "violation_count": 3
  },
  {
    "id": "251554",
    "name": "ARAMARK AT ELECTRIC BOAT",
    "address": "BUILDING 2003 NORTH KINGSTOWN RI 02852",
    "last_inspection": "03-03-2026",
    "license_type": "Seats - 50 or More",
    "lat": 41.5985873,
    "lng": -71.4301105,
    "violation_count": 1
  },
  {
    "id": "252441",
    "name": "PHYLLIS SIPERSTEIN TAMARISK ASSISTED LIVING",
    "address": "3 SHALOM DRIVE WARWICK RI 02886",
    "last_inspection": "03-03-2026",
    "license_type": "Food Service (Non-Profit)",
    "lat": 41.723906,
    "lng": -71.467455,
    "violation_count": 0
  },
  {
    "id": "260092",
    "name": "PLAINFIELD MEAT MARKET",
    "address": "600 PLAINFIELD ST PROVIDENCE RI 02909",
    "last_inspection": "03-03-2026",
    "license_type": "Cash Registers - 1-2",
    "lat": 41.812605,
    "lng": -71.458783,
    "violation_count": 8
  },
  {
    "id": "260228",
    "name": "MCDONALDS",
    "address": "2390 WARWICK AVENUE WARWICK RI 02886",
    "last_inspection": "03-03-2026",
    "license_type": "Seats - 50 or More",
    "lat": 41.7124527,
    "lng": -71.3984075,
    "violation_count": 1
  },
  {
    "id": "261071",
    "name": "RABARS AVENUE N RESTAURANT",
    "address": "BUILDING 3 EAST PROVIDENCE RI 02916",
    "last_inspection": "03-03-2026",
    "license_type": "Seats - 50 or More",
    "lat": 41.8194081,
    "lng": -71.376257,
    "violation_count": 4
  },
  {
    "id": "261142",
    "name": "JULIANS",
    "address": "318 BROADWAY PROVIDENCE RI 02909",
    "last_inspection": "03-03-2026",
    "license_type": "Caterer or Commissary",
    "lat": 41.8199898,
    "lng": -71.4281526,
    "violation_count": 2
  },
  {
    "id": "261350",
    "name": "RHODE ISLAND SCHOOL FOR THE DEAF",
    "address": "1 CORLISS PARK PROVIDENCE RI 02908",
    "last_inspection": "03-03-2026",
    "license_type": "Food Service (Non-Profit)",
    "lat": 41.848495,
    "lng": -71.427688,
    "violation_count": 0
  },
  {
    "id": "261621",
    "name": "WALMART NO 2225",
    "address": "7 DOWLING VILLAGE BOULEVARD NORTH SMITHFIELD RI 02896",
    "last_inspection": "03-03-2026",
    "license_type": "Cash Registers - 6 or more",
    "lat": 41.9762452,
    "lng": -71.5053574,
    "violation_count": 5
  },
  {
    "id": "261806",
    "name": "MILANOS PIZZERIA OLIVE DELI AND CONVENIENCE",
    "address": "659 SMITH STREET PROVIDENCE RI 02908",
    "last_inspection": "03-03-2026",
    "license_type": "Seats -  Less than 50",
    "lat": 41.8375176,
    "lng": -71.4329315,
    "violation_count": 18
  },
  {
    "id": "262001",
    "name": "JERSEY MIKES SUBS",
    "address": "1350 GREENWICH AVENUE WARWICK RI 02886",
    "last_inspection": "03-03-2026",
    "license_type": "Seats -  Less than 50",
    "lat": 41.7000752,
    "lng": -71.4593874,
    "violation_count": 0
  },
  {
    "id": "262896",
    "name": "CHILDRENS FRIEND AT ST PAULS CENTER",
    "address": "12 CARTER STREET PROVIDENCE RI 02907",
    "last_inspection": "03-03-2026",
    "license_type": "Food Service (Non-Profit)",
    "lat": 41.799968,
    "lng": -71.427745,
    "violation_count": 1
  },
  {
    "id": "265179",
    "name": "TOWN PIZZA II",
    "address": "18 KINGSTON RD WYOMING RI 02898",
    "last_inspection": "03-03-2026",
    "license_type": "Seats -  Less than 50",
    "lat": 41.511619158909,
    "lng": -71.687544586535,
    "violation_count": 5
  },
  {
    "id": "265668",
    "name": "SIMPLY NUTRITION",
    "address": "UNIT 10 JOHNSTON RI 02919",
    "last_inspection": "03-03-2026",
    "license_type": "Seats -  Less than 50",
    "lat": 41.8310404,
    "lng": -71.5412101,
    "violation_count": 2
  },
  {
    "id": "358740",
    "name": "DOMINOS PIZZA",
    "address": "557 WARWICK AVE WARWICK RI 02886",
    "last_inspection": "03-03-2026",
    "license_type": "Seats -  Less than 50",
    "lat": 41.7607703,
    "lng": -71.4048873,
    "violation_count": 0
  },
  {
    "id": "413492",
    "name": "THE MIDDLE OF NOWHERE DINER LLC",
    "address": "222 NOOSENECK HILL RD EXETER RI 02822",
    "last_inspection": "03-03-2026",
    "license_type": "Seats -  Less than 50",
    "lat": 41.5866222,
    "lng": -71.6512485,
    "violation_count": 0
  },
  {
    "id": "413694",
    "name": "ARIGNA IRISH PUB AND COAL FIRE KITCHEN",
    "address": "507 ARMISTICE BLVD PAWTUCKET RI 02861",
    "last_inspection": "03-03-2026",
    "license_type": "Seats - 50 or More",
    "lat": 41.8784144,
    "lng": -71.3547778,
    "violation_count": 4
  },
  {
    "id": "414971",
    "name": "LAURAS BAR AND GRILL",
    "address": "945 DOUGLAS PK SMITHFIELD RI 02917",
    "last_inspection": "03-03-2026",
    "license_type": "Seats - 50 or More",
    "lat": 41.9147852,
    "lng": -71.5160426,
    "violation_count": 5
  },
  {
    "id": "612281",
    "name": "PAWTUCKET ANNEX",
    "address": "PAWTUCKET SCHOOL  ANNEX PAWTUCKET RI 02860",
    "last_inspection": "03-03-2026",
    "license_type": "Food Service (Non-Profit)",
    "lat": 41.8690314,
    "lng": -71.3847733,
    "violation_count": 2
  },
  {
    "id": "612508",
    "name": "WALGREENS NO 17519",
    "address": "220 NEWPORT AVE RUMFORD RI 02916",
    "last_inspection": "03-03-2026",
    "license_type": "Cash Registers - 6 or more",
    "lat": 41.8527534,
    "lng": -71.3542523,
    "violation_count": 0
  },
  {
    "id": "612550",
    "name": "CUMBERLAND FARMS",
    "address": "823 SMITHFIELD AVE LINCOLN RI 02865",
    "last_inspection": "03-03-2026",
    "license_type": "Cash Registers - 3-5",
    "lat": 41.8821911,
    "lng": -71.4152018,
    "violation_count": 2
  },
  {
    "id": "612564",
    "name": "TAAM TO GO",
    "address": "3 SHALOM DR WARWICK RI 02886",
    "last_inspection": "03-03-2026",
    "license_type": "Caterer or Commissary",
    "lat": 41.723906,
    "lng": -71.467455,
    "violation_count": 0
  },
  {
    "id": "663199",
    "name": "TIENDA Y PANADERIA ZACAPA",
    "address": "740 DEXTER ST CENTRAL FALLS RI 02863",
    "last_inspection": "03-03-2026",
    "license_type": "Cash Registers - 1-2",
    "lat": 41.8870919,
    "lng": -71.3975806,
    "violation_count": 4
  },
  {
    "id": "663259",
    "name": "DUNKIN DONUTS",
    "address": "1871 MINERAL SPRING AVE NORTH PROVIDENCE RI 02904",
    "last_inspection": "03-03-2026",
    "license_type": "Seats -  Less than 50",
    "lat": 41.861288,
    "lng": -71.463577,
    "violation_count": 3
  },
  {
    "id": "770974",
    "name": "LA FAMILIA TACOS",
    "address": "750 W SHORE RD WARWICK RI 02889",
    "last_inspection": "03-03-2026",
    "license_type": "Seats -  Less than 50",
    "lat": 41.7241302,
    "lng": -71.3826381,
    "violation_count": 2
  },
  {
    "id": "771429",
    "name": "GRAINSLEYS KITCHEN AND DRINKS",
    "address": "745 W SHORE RD WARWICK RI 02889",
    "last_inspection": "03-03-2026",
    "license_type": "Seats -  Less than 50",
    "lat": 41.7240476,
    "lng": -71.382847,
    "violation_count": 3
  },
  {
    "id": "790183",
    "name": "BELLINI BY IGNAZIO CIPRIANI",
    "address": "90 WESTMINSTER ST PROVIDENCE RI 02903",
    "last_inspection": "03-03-2026",
    "license_type": "Caterer or Commissary",
    "lat": 41.8244646,
    "lng": -71.4103938,
    "violation_count": 22
  },
  {
    "id": "865775",
    "name": "TACO BELL",
    "address": "675 BEVERAGE HILL ROAD PAWTUCKET RI 02861",
    "last_inspection": "03-03-2026",
    "license_type": "Seats -  Less than 50",
    "lat": 41.8605619,
    "lng": -71.3540639,
    "violation_count": 0
  },
  {
    "id": "865920",
    "name": "BETTER LIVES RHODE ISLAND",
    "address": "300 WEYBOSSET STREET PROVIDENCE RI 02903",
    "last_inspection": "03-03-2026",
    "license_type": "Market (Non-Profit)",
    "lat": 41.8200812,
    "lng": -71.4138892,
    "violation_count": 1
  },
  {
    "id": "936856",
    "name": "FLEUR PROVIDENCE",
    "address": "1 WEST EXCHANGE STREET PROVIDENCE RI 02903",
    "last_inspection": "03-03-2026",
    "license_type": "Seats - 50 or More",
    "lat": 41.8252099,
    "lng": -71.4160651,
    "violation_count": 2
  },
  {
    "id": "937043",
    "name": "ANTOJITOS TAQUERIA",
    "address": "385 JEFFERSON BOULEVARD WARWICK RI 02886",
    "last_inspection": "03-03-2026",
    "license_type": "Seats -  Less than 50",
    "lat": 41.737225,
    "lng": -71.440046,
    "violation_count": 2
  },
  {
    "id": "937228",
    "name": "SUBWAY",
    "address": "345 PROVIDENCE STREET WARWICK RI 02886",
    "last_inspection": "03-03-2026",
    "license_type": "Seats -  Less than 50",
    "lat": 41.7119074,
    "lng": -71.499812,
    "violation_count": 2
  },
  {
    "id": "937740",
    "name": "JADE DRAGON",
    "address": "1982 WARWICK AVENUE WARWICK RI 02889",
    "last_inspection": "03-03-2026",
    "license_type": "Seats - 50 or More",
    "lat": 41.7225881,
    "lng": -71.4044683,
    "violation_count": 4
  },
  {
    "id": "938249",
    "name": "PAT'S ITALIAN RESTAURANT",
    "address": "1850 POST RD WARWICK RI 02886",
    "last_inspection": "03-03-2026",
    "license_type": "Seats - 50 or More",
    "lat": 41.73147,
    "lng": -71.436766,
    "violation_count": 1
  },
  {
    "id": "938794",
    "name": "APSOR CAFE",
    "address": "192-196 STANWOOD ST PROVIDENCE RI 02907",
    "last_inspection": "03-03-2026",
    "license_type": "Seats -  Less than 50",
    "lat": 41.802533,
    "lng": -71.4225044,
    "violation_count": 2
  },
  {
    "id": "938804",
    "name": "TIPSY TAVERN",
    "address": "354 TIOGUE AVE COVENTRY RI 02816",
    "last_inspection": "03-03-2026",
    "license_type": "Seats -  Less than 50",
    "lat": 41.682727,
    "lng": -71.544135,
    "violation_count": 4
  },
  {
    "id": "939179",
    "name": "LOVE AND COMPASSION ADULT DAY HEALTH CARE CENTER",
    "address": "92 EAST AVE PAWTUCKET RI 02860",
    "last_inspection": "03-03-2026",
    "license_type": "Food Service (Non-Profit)",
    "lat": 41.8760665,
    "lng": -71.3850074,
    "violation_count": 3
  },
  {
    "id": "939355",
    "name": "AMIRIS CATERING",
    "address": "14 RICHMOND ST BRISTOL RI 02809",
    "last_inspection": "03-03-2026",
    "license_type": "Cottage Food Manufacture",
    "lat": 41.6670586,
    "lng": -71.2688089,
    "violation_count": 0
  },
  {
    "id": "239081",
    "name": "NATHANAEL GREENE MIDDLE SCHOOL",
    "address": "721 CHALKSTONE AVENUE PROVIDENCE RI 02908",
    "last_inspection": "03-02-2026",
    "license_type": "Food Service (Non-Profit)",
    "lat": 41.833956,
    "lng": -71.43212,
    "violation_count": 1
  },
  {
    "id": "239235",
    "name": "STONY LANE ELEMENTARY",
    "address": "825 STONY LANE NORTH KINGSTOWN RI 02852",
    "last_inspection": "03-02-2026",
    "license_type": "Food Service (Non-Profit)",
    "lat": 41.5938315,
    "lng": -71.4862155,
    "violation_count": 0
  },
  {
    "id": "244594",
    "name": "WILLIAM R DUTEMPLE ELEMENTARY",
    "address": "32 GARDEN STREET CRANSTON RI 02910",
    "last_inspection": "03-02-2026",
    "license_type": "Food Service (Non-Profit)",
    "lat": 41.781407,
    "lng": -71.4307354,
    "violation_count": 0
  },
  {
    "id": "244665",
    "name": "PARK VIEW JR HIGH SCHOOL",
    "address": "25 PARK VIEW BOULEVARD CRANSTON RI 02910",
    "last_inspection": "03-02-2026",
    "license_type": "Food Service (Non-Profit)",
    "lat": 41.771209,
    "lng": -71.415915,
    "violation_count": 1
  },
  {
    "id": "246214",
    "name": "SODEXO MGT INC AT MILEY HALL",
    "address": "100 OCHRE POINT AVENUE NEWPORT RI 02840",
    "last_inspection": "03-02-2026",
    "license_type": "Seats - 50 or More",
    "lat": 41.471202,
    "lng": -71.3004917,
    "violation_count": 5
  },
  {
    "id": "247846",
    "name": "SHAWS SUPERMARKET NO 180/7438",
    "address": "160-A OLD TOWER HILL ROAD WAKEFIELD RI 02879",
    "last_inspection": "03-02-2026",
    "license_type": "Cash Registers - 6 or more",
    "lat": 41.4437099,
    "lng": -71.4818782,
    "violation_count": 2
  },
  {
    "id": "253054",
    "name": "MCAULEY HOUSE",
    "address": "622 ELMWOOD AVENUE PROVIDENCE RI 02907",
    "last_inspection": "03-02-2026",
    "license_type": "Food Service (Non-Profit)",
    "lat": 41.7946997,
    "lng": -71.4245688,
    "violation_count": 3
  },
  {
    "id": "253284",
    "name": "MT PLEASANT ACADEMY",
    "address": "1246 CHALKSTONE AVENUE PROVIDENCE RI 02908",
    "last_inspection": "03-02-2026",
    "license_type": "Seats -  Less than 50",
    "lat": 41.8327558,
    "lng": -71.4500223,
    "violation_count": 0
  },
  {
    "id": "253856",
    "name": "LOVE 4 ALL CHILD CARE CENTER",
    "address": "310 ELMWOOD AVENUE PROVIDENCE RI 02907",
    "last_inspection": "03-02-2026",
    "license_type": "Seats - 50 or More",
    "lat": 41.804001,
    "lng": -71.425483,
    "violation_count": 0
  },
  {
    "id": "253896",
    "name": "BUSKERS",
    "address": "178 THAMES STREET NEWPORT RI 02840",
    "last_inspection": "03-02-2026",
    "license_type": "Seats - 50 or More",
    "lat": 41.488398,
    "lng": -71.315007,
    "violation_count": 6
  },
  {
    "id": "256740",
    "name": "HONEY DEW DONUTS",
    "address": "240 POST ROAD WESTERLY RI 02891",
    "last_inspection": "03-02-2026",
    "license_type": "Seats -  Less than 50",
    "lat": 41.3545435,
    "lng": -71.7995986,
    "violation_count": 2
  },
  {
    "id": "257254",
    "name": "ALL SEASONS INN AND SUITES",
    "address": "355 GEORGE WASHINGTON HIGHWAY SMITHFIELD RI 02917",
    "last_inspection": "03-02-2026",
    "license_type": "Seats -  Less than 50",
    "lat": 41.9226256,
    "lng": -71.509831,
    "violation_count": 5
  },
  {
    "id": "257360",
    "name": "TARGET STORE T-2073",
    "address": "620 GEORGE WASHINGTON HIGHWAY LINCOLN RI 028654216",
    "last_inspection": "03-02-2026",
    "license_type": "Cash Registers - 6 or more",
    "lat": 41.938129,
    "lng": -71.4787049,
    "violation_count": 4
  },
  {
    "id": "258958",
    "name": "BIG TONYS PIZZA",
    "address": "525 EATON STREET PROVIDENCE RI 02908",
    "last_inspection": "03-02-2026",
    "license_type": "Seats -  Less than 50",
    "lat": 41.8437311,
    "lng": -71.4471308,
    "violation_count": 4
  },
  {
    "id": "261133",
    "name": "ARTURO JOES",
    "address": "140 POINT JUDITH ROAD NARRAGANSETT RI 02882",
    "last_inspection": "03-02-2026",
    "license_type": "Caterer or Commissary",
    "lat": 41.4274668,
    "lng": -71.4806716,
    "violation_count": 0
  },
  {
    "id": "264308",
    "name": "PUBLIC KITCHEN AND BAR",
    "address": "120 FRANCIS ST PROVIDENCE RI 02903",
    "last_inspection": "03-02-2026",
    "license_type": "Seats - 50 or More",
    "lat": 41.8297688,
    "lng": -71.4161214,
    "violation_count": 8
  },
  {
    "id": "358849",
    "name": "EL REY DE LAS PUPUSAS",
    "address": "1019 CHALKSTONE AVE PROVIDENCE RI 02908",
    "last_inspection": "03-02-2026",
    "license_type": "Seats -  Less than 50",
    "lat": 41.8323543,
    "lng": -71.441488,
    "violation_count": 10
  },
  {
    "id": "414034",
    "name": "FLAMES RESTAURANT",
    "address": "734 EDDY ST PROVIDENCE RI 02903",
    "last_inspection": "03-02-2026",
    "license_type": "Seats -  Less than 50",
    "lat": 41.808016,
    "lng": -71.407129,
    "violation_count": 21
  },
  {
    "id": "662662",
    "name": "L AND M GROCERY MARKET",
    "address": "454 PUBLIC ST PROVIDENCE RI 02907",
    "last_inspection": "03-02-2026",
    "license_type": "Cash Registers - 1-2",
    "lat": 41.8050593,
    "lng": -71.4165579,
    "violation_count": 9
  },
  {
    "id": "714032",
    "name": "HOME 2 SUITES",
    "address": "944 DOUGLAS PK SMITHFIELD RI 02917",
    "last_inspection": "03-02-2026",
    "license_type": "Seats -  Less than 50",
    "lat": 41.9135593,
    "lng": -71.5182652,
    "violation_count": 5
  },
  {
    "id": "770730",
    "name": "PROVIDENCE STREET SHELL",
    "address": "6 PROVIDENCE ST WEST WARWICK RI 02893",
    "last_inspection": "03-02-2026",
    "license_type": "Cash Registers - 1-2",
    "lat": 41.7079018,
    "lng": -71.5220939,
    "violation_count": 0
  },
  {
    "id": "790063",
    "name": "APSARA ASIAN RESTAURANT",
    "address": "716 PUBLIC ST PROVIDENCE RI 02907",
    "last_inspection": "03-02-2026",
    "license_type": "Seats - 50 or More",
    "lat": 41.8060145,
    "lng": -71.4129528,
    "violation_count": 0
  },
  {
    "id": "856647",
    "name": "GOLDEN CHOPSTIX",
    "address": "62 FRANKLIN ST WESTERLY RI 02891",
    "last_inspection": "03-02-2026",
    "license_type": "Seats -  Less than 50",
    "lat": 41.3638869,
    "lng": -71.8149462,
    "violation_count": 4
  },
  {
    "id": "936584",
    "name": "ANTONIO'S PIZZA WICKENDEN STREET",
    "address": "125 WICKENDEN STREET PROVIDENCE RI 02903",
    "last_inspection": "03-02-2026",
    "license_type": "Seats -  Less than 50",
    "lat": 41.8186194,
    "lng": -71.4012356,
    "violation_count": 1
  },
  {
    "id": "939029",
    "name": "HOPES SWEET TREATS",
    "address": "110 EAGLE PEAK ROAD PASCOAG RI 02859",
    "last_inspection": "03-02-2026",
    "license_type": "Cottage Food Manufacture",
    "lat": 41.9630507,
    "lng": -71.7232029,
    "violation_count": 0
  },
  {
    "id": "939129",
    "name": "FIREHOUSE SUBS",
    "address": "1051 TEN ROD RD NORTH KINGSTOWN RI 02852",
    "last_inspection": "03-02-2026",
    "license_type": "Seats -  Less than 50",
    "lat": 41.5817098,
    "lng": -71.4914526,
    "violation_count": 1
  },
  {
    "id": "939330",
    "name": "RI GUYS DONUTS",
    "address": "224 POST RD WESTERLY RI 02891",
    "last_inspection": "03-02-2026",
    "license_type": "Seats -  Less than 50",
    "lat": 41.354396,
    "lng": -71.799106,
    "violation_count": 4
  },
  {
    "id": "939340",
    "name": "THE FRESH MONKEE",
    "address": "540 KINGSTOWN RD WAKEFIELD RI 02879",
    "last_inspection": "03-02-2026",
    "license_type": "Seats -  Less than 50",
    "lat": 41.4391724,
    "lng": -71.4870347,
    "violation_count": 1
  },
  {
    "id": "246173",
    "name": "EAST SIDE NURSERY SCHOOL",
    "address": "372 WAYLAND AVENUE PROVIDENCE RI 02906",
    "last_inspection": "02-27-2026",
    "license_type": "Food Service (Non-Profit)",
    "lat": 41.835386,
    "lng": -71.389674,
    "violation_count": 0
  },
  {
    "id": "263321",
    "name": "THE HIGHLANDS",
    "address": "101 HIGHLAND AVE PROVIDENCE RI 02906",
    "last_inspection": "02-27-2026",
    "license_type": "Seats -  Less than 50",
    "lat": 41.84978,
    "lng": -71.4007771,
    "violation_count": 4
  },
  {
    "id": "865961",
    "name": "LOTUS PEPPER",
    "address": "752 HOPE STREET PROVIDENCE RI 02906",
    "last_inspection": "02-27-2026",
    "license_type": "Seats -  Less than 50",
    "lat": 41.8472792,
    "lng": -71.3959881,
    "violation_count": 0
  },
  {
    "id": "939083",
    "name": "LATTE LOVE COFFEE",
    "address": "1276 BALD HILL RD  WARWICK RI 02886",
    "last_inspection": "02-27-2026",
    "license_type": "Seats -  Less than 50",
    "lat": 41.7059798,
    "lng": -71.4907241,
    "violation_count": 1
  },
  {
    "id": "939143",
    "name": "BUCKET AND THE BEAN",
    "address": "679 BOSTON NECK RD NORTH KINGSTOWN RI 02852",
    "last_inspection": "02-27-2026",
    "license_type": "Seats -  Less than 50",
    "lat": 41.5523695,
    "lng": -71.4409456,
    "violation_count": 1
  },
  {
    "id": "939350",
    "name": "PENNY FOR YOUR THOUGHTS COOKIES",
    "address": "95 BERNICE AVE WOONSOCKET RI 02895",
    "last_inspection": "02-27-2026",
    "license_type": "Cottage Food Manufacture",
    "lat": 41.9926995,
    "lng": -71.5282655,
    "violation_count": 0
  },
  {
    "id": "714162",
    "name": "ANCHOR BAY AT GREENWICH",
    "address": "945 MAIN ST EAST GREENWICH RI 02818",
    "last_inspection": "02-26-2026",
    "license_type": "Seats - 50 or More",
    "lat": 41.6520661,
    "lng": -71.4571322,
    "violation_count": 0
  },
  {
    "id": "771070",
    "name": "FISH CO",
    "address": "15 BRIDGE ST PROVIDENCE RI 02903",
    "last_inspection": "02-26-2026",
    "license_type": "Seats - 50 or More",
    "lat": 41.8183899,
    "lng": -71.4024011,
    "violation_count": 1
  },
  {
    "id": "938951",
    "name": "WETHERBEE'S",
    "address": "35 CONNECTICUT AVE BLOCK ISLAND RI 02807",
    "last_inspection": "02-26-2026",
    "license_type": "Seats - 50 or More",
    "lat": 41.1714453,
    "lng": -71.566895,
    "violation_count": 1
  },
  {
    "id": "237564",
    "name": "ARRUDAS DAIRY FARMS",
    "address": "408 STAFFORD ROAD TIVERTON RI 02878",
    "last_inspection": "02-25-2026",
    "license_type": "Milk Processor In-State",
    "lat": 41.651026,
    "lng": -71.149804,
    "violation_count": 0
  },
  {
    "id": "939334",
    "name": "APPLEBEE'S NEIGHBORHOOD GRILL AND BAR",
    "address": "349 WEST MAIN RD MIDDLETOWN RI 02842",
    "last_inspection": "02-22-2026",
    "license_type": "Mobile Food Service",
    "lat": 41.5148646,
    "lng": -71.3007186,
    "violation_count": 0
  },
  {
    "id": "260038",
    "name": "RIVERSIDE CONGREGATIONAL CHURCH",
    "address": "15 OAK AVENUE EAST PROVIDENCE RI 02915",
    "last_inspection": "02-20-2026",
    "license_type": "Food Service (Non-Profit)",
    "lat": 41.769719,
    "lng": -71.361932,
    "violation_count": 1
  },
  {
    "id": "938927",
    "name": "WONDER",
    "address": "1000 CHAPEL VIEW BLVD CRANSTON RI 02920",
    "last_inspection": "02-20-2026",
    "license_type": "Seats -  Less than 50",
    "lat": 41.7570446,
    "lng": -71.4605868,
    "violation_count": 0
  },
  {
    "id": "939205",
    "name": "MALKANIS CAFE",
    "address": "213 WEYBOSSET STREET PROVIDENCE RI 02903",
    "last_inspection": "02-20-2026",
    "license_type": "Seats -  Less than 50",
    "lat": 41.821524,
    "lng": -71.41255,
    "violation_count": 3
  },
  {
    "id": "939229",
    "name": "HIGHER GROUNDS COFFEE",
    "address": "39 KINGSTOWN RD RICHMOND RI 02898",
    "last_inspection": "02-20-2026",
    "license_type": "Seats -  Less than 50",
    "lat": 41.5096335,
    "lng": -71.6845076,
    "violation_count": 0
  },
  {
    "id": "238845",
    "name": "THREE FLAGS BAKERY INC",
    "address": "1255 BROAD STREET CENTRAL FALLS RI 02863",
    "last_inspection": "02-19-2026",
    "license_type": "Food Processor Retail - In-State",
    "lat": 41.8971504,
    "lng": -71.3883409,
    "violation_count": 0
  },
  {
    "id": "246592",
    "name": "BUTCHER SHOP, INC. THE",
    "address": "157 ELMGROVE AVENUE PROVIDENCE RI 02906",
    "last_inspection": "02-19-2026",
    "license_type": "Seats -  Less than 50",
    "lat": 41.8350601,
    "lng": -71.3909963,
    "violation_count": 8
  },
  {
    "id": "248394",
    "name": "SWEENOR'S CHOCOLATES INC",
    "address": "43 HILLSIDE ROAD CRANSTON RI 02920",
    "last_inspection": "02-19-2026",
    "license_type": "Cash Registers - 1-2",
    "lat": 41.7647842,
    "lng": -71.4584448,
    "violation_count": 2
  },
  {
    "id": "257226",
    "name": "SUPER STOP AND SHOP SUPERMARKET NO 737",
    "address": "1300 TEN ROD ROAD NORTH KINGSTOWN RI 02852",
    "last_inspection": "03-10-2026",
    "license_type": "Cash Registers - 6 or more",
    "lat": 41.5806561,
    "lng": -71.5001762,
    "violation_count": 2
  },
  {
    "id": "257272",
    "name": "JD CONVENIENCE / SHIVAM INC",
    "address": "202 THAMES STREET NEWPORT RI 02840",
    "last_inspection": "02-19-2026",
    "license_type": "Cash Registers - 1-2",
    "lat": 41.4879857,
    "lng": -71.3148148,
    "violation_count": 1
  },
  {
    "id": "258068",
    "name": "TEXAS ROADHOUSE",
    "address": "1200 QUAKER LANE EAST GREENWICH RI 028181688",
    "last_inspection": "02-19-2026",
    "license_type": "Seats - 50 or More",
    "lat": 41.6632864,
    "lng": -71.4945168,
    "violation_count": 8
  },
  {
    "id": "258874",
    "name": "DUNKIN DONUTS",
    "address": "4120 MENDON ROAD CUMBERLAND RI 02864",
    "last_inspection": "02-19-2026",
    "license_type": "Seats -  Less than 50",
    "lat": 41.9850608,
    "lng": -71.4781404,
    "violation_count": 3
  },
  {
    "id": "258917",
    "name": "MILLS TAVERN",
    "address": "101 NORTH MAIN STREET PROVIDENCE RI 02903",
    "last_inspection": "02-19-2026",
    "license_type": "Seats - 50 or More",
    "lat": 41.8280107,
    "lng": -71.4091161,
    "violation_count": 6
  },
  {
    "id": "358416",
    "name": "12 DUMPLINGS & HOT POT",
    "address": "83 BENVEOLENT ST PROVIDENCE RI 02906",
    "last_inspection": "02-19-2026",
    "license_type": "Seats - 50 or More",
    "lat": 41.824834201985,
    "lng": -71.399030320637,
    "violation_count": 9
  },
  {
    "id": "663384",
    "name": "THE GUILD",
    "address": "461 MAIN ST PAWTUCKET RI 02860",
    "last_inspection": "02-19-2026",
    "license_type": "Seats - 50 or More",
    "lat": 41.8764297,
    "lng": -71.38949,
    "violation_count": 2
  },
  {
    "id": "714266",
    "name": "THAI CUISINE",
    "address": "517 THAMES ST NEWPORT RI 02840",
    "last_inspection": "02-19-2026",
    "license_type": "Seats -  Less than 50",
    "lat": 41.478826,
    "lng": -71.3143136,
    "violation_count": 3
  },
  {
    "id": "770755",
    "name": "ZIZI GULU LLC PIZZA PIE-ER",
    "address": "374 WICKENDEN STREET PROVIDENCE RI 02903",
    "last_inspection": "02-19-2026",
    "license_type": "Seats -  Less than 50",
    "lat": 41.8197585,
    "lng": -71.3958644,
    "violation_count": 14
  },
  {
    "id": "770790",
    "name": "YORKTOWN MARKET INC",
    "address": "6769 POST ROAD NORTH KINGSTOWN RI 02852",
    "last_inspection": "02-19-2026",
    "license_type": "Cash Registers - 1-2",
    "lat": 41.6140391,
    "lng": -71.4577746,
    "violation_count": 2
  },
  {
    "id": "771116",
    "name": "WESTBAY COMMUNITY ACTION MARKETPLACE",
    "address": "487 JEFFERSON BLVD WARWICK RI 02886",
    "last_inspection": "02-19-2026",
    "license_type": "Food Service (Non-Profit)",
    "lat": 41.7346964,
    "lng": -71.440969,
    "violation_count": 0
  },
  {
    "id": "856596",
    "name": "HISSHO SUSHI AT STOP AND SHOP NO 709",
    "address": "300 QUAKER LN WARWICK RI 02886",
    "last_inspection": "02-19-2026",
    "license_type": "Food Processor Retail - In-State",
    "lat": 41.6894996,
    "lng": -71.4988763,
    "violation_count": 0
  },
  {
    "id": "857207",
    "name": "THE HUT",
    "address": "245 CARPENTER ST PROVIDENCE RI 02903",
    "last_inspection": "02-19-2026",
    "license_type": "Seats -  Less than 50",
    "lat": 41.8185674,
    "lng": -71.4270236,
    "violation_count": 3
  },
  {
    "id": "866030",
    "name": "MOTHER PIZZERIA, UPTOWN HOSPITALITY LLC",
    "address": "49 LONG WHARF MALL NEWPORT RI 02840",
    "last_inspection": "02-19-2026",
    "license_type": "Seats - 50 or More",
    "lat": 41.4900048,
    "lng": -71.3160781,
    "violation_count": 0
  },
  {
    "id": "936785",
    "name": "STINGY ALLEY",
    "address": "489 MAIN STREET WARREN RI 02885",
    "last_inspection": "02-19-2026",
    "license_type": "Seats -  Less than 50",
    "lat": 41.729412,
    "lng": -71.282451,
    "violation_count": 6
  },
  {
    "id": "937235",
    "name": "SPRINGHILL SUITES",
    "address": "14 JAMES P MURPHY INDUSTRIAL HWY WEST WARWICK RI 02893",
    "last_inspection": "02-19-2026",
    "license_type": "Seats -  Less than 50",
    "lat": 41.6684332,
    "lng": -71.503519,
    "violation_count": 2
  },
  {
    "id": "938661",
    "name": "MAIN STREET CREPE COMPANY",
    "address": "438 MAIN STREET WARREN RI 02885",
    "last_inspection": "02-19-2026",
    "license_type": "Seats -  Less than 50",
    "lat": 41.7305947,
    "lng": -71.2825189,
    "violation_count": 2
  },
  {
    "id": "938700",
    "name": "PUPUSERIA ROSITA",
    "address": "531 DEXTER ST CENTRAL FALLS RI 02863",
    "last_inspection": "02-19-2026",
    "license_type": "Seats -  Less than 50",
    "lat": 41.8849637,
    "lng": -71.3949538,
    "violation_count": 2
  },
  {
    "id": "939307",
    "name": "EXCELSO CAFE",
    "address": "477 SMITHFIELD AVE PAWTUCKET RI 02860",
    "last_inspection": "02-19-2026",
    "license_type": "Seats -  Less than 50",
    "lat": 41.874166,
    "lng": -71.414301,
    "violation_count": 1
  },
  {
    "id": "939319",
    "name": "THE QUENCHER",
    "address": "95 LONG WHARF MALL NEWPORT RI 02840",
    "last_inspection": "02-19-2026",
    "license_type": "Seats - 50 or More",
    "lat": 41.4899098,
    "lng": -71.316046,
    "violation_count": 1
  },
  {
    "id": "241926",
    "name": "PARKSIDE ROTISSERIE & BAR",
    "address": "76 SOUTH MAIN STREET PROVIDENCE RI 02903",
    "last_inspection": "03-10-2026",
    "license_type": "Caterer or Commissary",
    "lat": 41.8248421,
    "lng": -71.4070921,
    "violation_count": 8
  },
  {
    "id": "243735",
    "name": "WILD COLONIAL TAVERN,THE",
    "address": "250 SOUTH WATER STREET PROVIDENCE RI 02903",
    "last_inspection": "02-18-2026",
    "license_type": "Seats - 50 or More",
    "lat": 41.821863,
    "lng": -71.4053897,
    "violation_count": 2
  },
  {
    "id": "245590",
    "name": "SMITH HILL EARLY CHILDHOOD LEARNING CENTER",
    "address": "25 DANFORTH STREET PROVIDENCE RI 02908",
    "last_inspection": "02-18-2026",
    "license_type": "Food Service (Non-Profit)",
    "lat": 41.8366319,
    "lng": -71.4272331,
    "violation_count": 1
  },
  {
    "id": "253034",
    "name": "HAMPTON INN COVENTRY",
    "address": "850 CENTRE OF NEW ENGLAND BLVD COVENTRY RI 02816",
    "last_inspection": "02-18-2026",
    "license_type": "Seats -  Less than 50",
    "lat": 41.6621762,
    "lng": -71.5680972,
    "violation_count": 2
  },
  {
    "id": "256387",
    "name": "BRISTOL FOOD MART",
    "address": "259 WOOD STREET BRISTOL RI 02809",
    "last_inspection": "02-18-2026",
    "license_type": "Cash Registers - 1-2",
    "lat": 41.668311,
    "lng": -71.270163,
    "violation_count": 0
  },
  {
    "id": "262084",
    "name": "JEWISH ALLIANCE OF GREATER RHODE ISLAND",
    "address": "401 ELMGROVE AVENUE PROVIDENCE RI 02906",
    "last_inspection": "02-18-2026",
    "license_type": "Food Service (Non-Profit)",
    "lat": 41.843386,
    "lng": -71.392479,
    "violation_count": 2
  },
  {
    "id": "263503",
    "name": "BASIL'S PIZZA",
    "address": "1270 CRANSTON ST CRANSTON RI 02920",
    "last_inspection": "02-18-2026",
    "license_type": "Seats -  Less than 50",
    "lat": 41.791012,
    "lng": -71.4519051,
    "violation_count": 2
  },
  {
    "id": "358499",
    "name": "CUMBERLAND FARMS NO 1214",
    "address": "478 BROAD ST CENTRAL FALLS RI 02863",
    "last_inspection": "02-18-2026",
    "license_type": "Cash Registers - 3-5",
    "lat": 41.885923,
    "lng": -71.387177,
    "violation_count": 4
  },
  {
    "id": "413338",
    "name": "EVERGREEN ASSISTED LIVING",
    "address": "116 GREENE ST WOONSOCKET RI 02895",
    "last_inspection": "02-18-2026",
    "license_type": "Food Service (Non-Profit)",
    "lat": 42.0004865,
    "lng": -71.5099743,
    "violation_count": 1
  },
  {
    "id": "413700",
    "name": "PIZZA J",
    "address": "967 WESTMINSTER ST PROVIDENCE RI 02903",
    "last_inspection": "02-18-2026",
    "license_type": "Caterer or Commissary",
    "lat": 41.8173393,
    "lng": -71.4243622,
    "violation_count": 14
  },
  {
    "id": "414516",
    "name": "THE BLACK PEAR",
    "address": "312 COUNTY RD BARRINGTON RI 02806",
    "last_inspection": "02-18-2026",
    "license_type": "Seats -  Less than 50",
    "lat": 41.741907560051,
    "lng": -71.310327423656,
    "violation_count": 4
  },
  {
    "id": "612341",
    "name": "LA PALENCIANITA",
    "address": "810 BROAD ST CENTRAL FALLS RI 02863",
    "last_inspection": "02-18-2026",
    "license_type": "Seats -  Less than 50",
    "lat": 41.8909175,
    "lng": -71.3874826,
    "violation_count": 2
  },
  {
    "id": "662704",
    "name": "HILTON GARDEN INN PROVIDENCE AIRPORT WARWICK",
    "address": "1 THURBER ST WARWICK RI 02886",
    "last_inspection": "02-18-2026",
    "license_type": "Seats - 50 or More",
    "lat": 41.7290281,
    "lng": -71.4434393,
    "violation_count": 1
  },
  {
    "id": "713602",
    "name": "RALPHS CATERING",
    "address": "470 ATWOOD AVE CRANSTON RI 02920",
    "last_inspection": "02-18-2026",
    "license_type": "Caterer or Commissary",
    "lat": 41.7887548,
    "lng": -71.4724067,
    "violation_count": 2
  },
  {
    "id": "770820",
    "name": "KABUKI ASIAN LOUNGE",
    "address": "91 OLD TOWER HILL ROAD  WAKEFIELD RI 02879",
    "last_inspection": "02-18-2026",
    "license_type": "Seats - 50 or More",
    "lat": 41.4420203,
    "lng": -71.4835551,
    "violation_count": 4
  },
  {
    "id": "770881",
    "name": "CITY STAR",
    "address": "601 WINTER ST WOONSOCKET RI 02895",
    "last_inspection": "02-18-2026",
    "license_type": "Cash Registers - 1-2",
    "lat": 42.0139955,
    "lng": -71.5142405,
    "violation_count": 4
  },
  {
    "id": "770985",
    "name": "LA MARISCADA RESTAURANT BAR LLC",
    "address": "671-675 BROADWAY PROVIDENCE RI 02909",
    "last_inspection": "02-18-2026",
    "license_type": "Seats - 50 or More",
    "lat": 41.8166815,
    "lng": -71.4416063,
    "violation_count": 3
  },
  {
    "id": "771068",
    "name": "THE BOSS AUTHENTIC THAI CUISINE",
    "address": "1 WASECA  AVE BARRINGTON RI 02806",
    "last_inspection": "02-18-2026",
    "license_type": "Seats -  Less than 50",
    "lat": 41.738724,
    "lng": -71.306783,
    "violation_count": 1
  },
  {
    "id": "789681",
    "name": "CABRALS GOURMET CHICKEN",
    "address": "585 METACOM AVE BRISTOL RI 02809",
    "last_inspection": "02-18-2026",
    "license_type": "Seats -  Less than 50",
    "lat": 41.689689,
    "lng": -71.2627125,
    "violation_count": 4
  },
  {
    "id": "789890",
    "name": "THE PRESERVE AT BRIARCLIFFE",
    "address": "54 OLD POCASSET RD JOHNSTON RI 02919",
    "last_inspection": "02-18-2026",
    "license_type": "Seats - 50 or More",
    "lat": 41.8180483,
    "lng": -71.5152053,
    "violation_count": 5
  },
  {
    "id": "790341",
    "name": "BOREALIS COFFEE COMPANY",
    "address": "500 WOOD ST UNIT 113 BRISTOL RI 02809",
    "last_inspection": "02-18-2026",
    "license_type": "Seats - 50 or More",
    "lat": 41.6732525,
    "lng": -71.2697886,
    "violation_count": 0
  },
  {
    "id": "790407",
    "name": "DRIP COFFEE LOUNGE",
    "address": "2725 S COUNTY TRAIL EAST GREENWICH RI 02818",
    "last_inspection": "02-18-2026",
    "license_type": "Seats - 50 or More",
    "lat": 41.6225757,
    "lng": -71.4921471,
    "violation_count": 3
  },
  {
    "id": "936608",
    "name": "LATINOS DELI MEAT MARKET",
    "address": "395 FRONT STREET WOONSOCKET RI 02895",
    "last_inspection": "02-18-2026",
    "license_type": "Cash Registers - 1-2",
    "lat": 41.99798,
    "lng": -71.5139599,
    "violation_count": 4
  },
  {
    "id": "936749",
    "name": "ROYAL FUEL",
    "address": "732 WILLETT AVENUE RIVERSIDE RI 02915",
    "last_inspection": "02-18-2026",
    "license_type": "Cash Registers - 1-2",
    "lat": 41.7727456,
    "lng": -71.353558,
    "violation_count": 3
  },
  {
    "id": "938839",
    "name": "BIRDIES HOT CHICKEN",
    "address": "183 ANGELL STREET PROVIDENCE RI 02906",
    "last_inspection": "02-18-2026",
    "license_type": "Seats -  Less than 50",
    "lat": 41.8280516,
    "lng": -71.4002581,
    "violation_count": 7
  },
  {
    "id": "245066",
    "name": "HATTIE IDE CHAFFEE HOME",
    "address": "200 WAMPANOAG TRAIL EAST PROVIDENCE RI 02915",
    "last_inspection": "02-17-2026",
    "license_type": "Food Service (Non-Profit)",
    "lat": 41.796149,
    "lng": -71.354412,
    "violation_count": 0
  },
  {
    "id": "245303",
    "name": "PROVIDENCE PERFORMING ARTS CENTER",
    "address": "220 WEYBOSSET STREET PROVIDENCE RI 02903",
    "last_inspection": "02-17-2026",
    "license_type": "Seats -  Less than 50",
    "lat": 41.8213941,
    "lng": -71.4123979,
    "violation_count": 8
  },
  {
    "id": "246150",
    "name": "TOWN PIZZA OF EXETER INC",
    "address": "240 SOUTH COUNTY TRAIL EXETER RI 02822",
    "last_inspection": "02-17-2026",
    "license_type": "Seats -  Less than 50",
    "lat": 41.5457685,
    "lng": -71.5344031,
    "violation_count": 1
  },
  {
    "id": "247517",
    "name": "SUPER STOP AND SHOP NO 725",
    "address": "333 WEST RIVER STREET PROVIDENCE RI 02904",
    "last_inspection": "02-17-2026",
    "license_type": "Cash Registers - 6 or more",
    "lat": 41.8454268,
    "lng": -71.4121232,
    "violation_count": 9
  },
  {
    "id": "248776",
    "name": "SUPER STOP AND SHOP NO 709",
    "address": "300 QUAKER LANE WARWICK RI 02886",
    "last_inspection": "02-17-2026",
    "license_type": "Cash Registers - 6 or more",
    "lat": 41.6894996,
    "lng": -71.4988763,
    "violation_count": 0
  },
  {
    "id": "251786",
    "name": "DUNKIN DONUTS",
    "address": "3781 MENDON ROAD CUMBERLAND RI 02864",
    "last_inspection": "02-17-2026",
    "license_type": "Seats -  Less than 50",
    "lat": 41.9820792,
    "lng": -71.4696469,
    "violation_count": 6
  },
  {
    "id": "258689",
    "name": "BLACKSTONE OYSTER BAR",
    "address": "762 HOPE STREET PROVIDENCE RI 02906",
    "last_inspection": "03-09-2026",
    "license_type": "Caterer or Commissary",
    "lat": 41.8476401,
    "lng": -71.3955706,
    "violation_count": 1
  },
  {
    "id": "261938",
    "name": "SUNNYSIDE RESTAURANT",
    "address": "2428 WEST SHORE ROAD WARWICK RI 02889",
    "last_inspection": "02-17-2026",
    "license_type": "Seats -  Less than 50",
    "lat": 41.7042431,
    "lng": -71.4123391,
    "violation_count": 4
  },
  {
    "id": "262287",
    "name": "BON ASIAN BISTRO",
    "address": "1386 ATWOOD AVENUE JOHNSTON RI 02919",
    "last_inspection": "02-17-2026",
    "license_type": "Seats - 50 or More",
    "lat": 41.815366,
    "lng": -71.4966776,
    "violation_count": 5
  },
  {
    "id": "264341",
    "name": "POLLO CAMPERO",
    "address": "661 ATWELLS AVE BLDG B PROVIDENCE RI 02909",
    "last_inspection": "02-17-2026",
    "license_type": "Seats - 50 or More",
    "lat": 41.824619557913,
    "lng": -71.439392702396,
    "violation_count": 2
  },
  {
    "id": "264490",
    "name": "EASTGATE NURSING AND REHAB CENTER",
    "address": "198 WATERMAN AVE EAST PROVIDENCE RI 02914",
    "last_inspection": "02-17-2026",
    "license_type": "Seats - 50 or More",
    "lat": 41.822008,
    "lng": -71.371097,
    "violation_count": 2
  },
  {
    "id": "265110",
    "name": "BENJAMINS POOR RICHARDS",
    "address": "254 THAMES ST NEWPORT RI 02840",
    "last_inspection": "02-17-2026",
    "license_type": "Caterer or Commissary",
    "lat": 41.4865104,
    "lng": -71.3148098,
    "violation_count": 4
  },
  {
    "id": "265575",
    "name": "MILLERS ROAST BEEF INC",
    "address": "628 WARREN AVE EAST PROVIDENCE RI 02914",
    "last_inspection": "02-17-2026",
    "license_type": "Seats -  Less than 50",
    "lat": 41.811621,
    "lng": -71.360671,
    "violation_count": 0
  },
  {
    "id": "413893",
    "name": "JLS DANAS SPORTS LOUNGE",
    "address": "1410 R MINERAL SPRING AVE NORTH PROVIDENCE RI 02904",
    "last_inspection": "02-17-2026",
    "license_type": "Seats - 50 or More",
    "lat": 41.8671769,
    "lng": -71.4389581,
    "violation_count": 2
  },
  {
    "id": "415533",
    "name": "STARBUCKS COFFEE NO 48803",
    "address": "1412 ATWOOD AVE JOHNSTON RI 02919",
    "last_inspection": "02-17-2026",
    "license_type": "Seats -  Less than 50",
    "lat": 41.8185481,
    "lng": -71.4971031,
    "violation_count": 6
  },
  {
    "id": "612063",
    "name": "TWO BROTHERS MEAT MARKET LLC",
    "address": "417 HARTFORD AVE PROVIDENCE RI 02909",
    "last_inspection": "02-17-2026",
    "license_type": "Cash Registers - 1-2",
    "lat": 41.8184956,
    "lng": -71.4577018,
    "violation_count": 12
  },
  {
    "id": "612231",
    "name": "THE EAST END",
    "address": "244 WICKENDEN ST PROVIDENCE RI 02903",
    "last_inspection": "02-17-2026",
    "license_type": "Caterer or Commissary",
    "lat": 41.8195599,
    "lng": -71.3983835,
    "violation_count": 0
  },
  {
    "id": "662814",
    "name": "RICHMOND SMOKE",
    "address": "1219 MAIN ST WYOMING RI 02898",
    "last_inspection": "02-17-2026",
    "license_type": "Seats - 50 or More",
    "lat": 41.5131827,
    "lng": -71.6946314,
    "violation_count": 4
  },
  {
    "id": "714112",
    "name": "OPERATION STAND DOWN RHODE ISLAND",
    "address": "1010 HARTFORD AVE JOHNSTON RI 02919",
    "last_inspection": "02-17-2026",
    "license_type": "Food Service (Non-Profit)",
    "lat": 41.821769,
    "lng": -71.483684,
    "violation_count": 1
  },
  {
    "id": "771040",
    "name": "DRIFT CAFE",
    "address": "190 A THAMES ST NEWPORT RI 02840",
    "last_inspection": "02-17-2026",
    "license_type": "Seats -  Less than 50",
    "lat": 41.4923459,
    "lng": -71.3154533,
    "violation_count": 3
  },
  {
    "id": "771084",
    "name": "BURGER KING NO 4983",
    "address": "800 LONSDALE AVE CENTRAL FALLS RI 028631614",
    "last_inspection": "02-17-2026",
    "license_type": "Seats - 50 or More",
    "lat": 41.8905031,
    "lng": -71.4024046,
    "violation_count": 3
  },
  {
    "id": "771368",
    "name": "DOLLAR TREE #08587",
    "address": "1050 WILLETT AVE RIVERSIDE RI 02915",
    "last_inspection": "02-17-2026",
    "license_type": "Cash Registers - 3-5",
    "lat": 41.759278391722,
    "lng": -71.344088757814,
    "violation_count": 2
  },
  {
    "id": "771427",
    "name": "THE GEORGE",
    "address": "121 WASHINGTON ST PROVIDENCE RI 02903",
    "last_inspection": "03-10-2026",
    "license_type": "Seats - 50 or More",
    "lat": 41.8230771,
    "lng": -71.4145946,
    "violation_count": 4
  },
  {
    "id": "789807",
    "name": "ANTOJITOS TAQUERIA",
    "address": "1188 CUMBERLAND HILL RD WOONSOCKET RI 02895",
    "last_inspection": "02-17-2026",
    "license_type": "Seats -  Less than 50",
    "lat": 41.9918535,
    "lng": -71.4833471,
    "violation_count": 3
  },
  {
    "id": "936817",
    "name": "HOMESTEAD",
    "address": "750 SOUTH COUNTY TRAIL EXETER RI 02822",
    "last_inspection": "02-17-2026",
    "license_type": "Seats - 50 or More",
    "lat": 41.515819,
    "lng": -71.55543,
    "violation_count": 1
  },
  {
    "id": "936997",
    "name": "PAPA JOHNS",
    "address": "379 SMITHFIELD ROAD PAWTUCKET RI 02860",
    "last_inspection": "02-17-2026",
    "license_type": "Seats -  Less than 50",
    "lat": 41.870613568027,
    "lng": -71.413572954521,
    "violation_count": 3
  },
  {
    "id": "937026",
    "name": "PANERA BREAD",
    "address": "593 EDDY STREET PROVIDENCE RI 02903",
    "last_inspection": "02-17-2026",
    "license_type": "Seats - 50 or More",
    "lat": 41.8112657,
    "lng": -71.4079546,
    "violation_count": 2
  },
  {
    "id": "937477",
    "name": "TROPICAL SMOOTHIE CAFE",
    "address": "199 J T CONNELL HIGHWAY NEWPORT RI 02840",
    "last_inspection": "02-17-2026",
    "license_type": "Seats -  Less than 50",
    "lat": 41.506286836557,
    "lng": -71.317534359676,
    "violation_count": 2
  },
  {
    "id": "937976",
    "name": "RONG CHIC",
    "address": "388 WICKENDEN ST PROVIDENCE RI 02903",
    "last_inspection": "03-09-2026",
    "license_type": "Seats -  Less than 50",
    "lat": 41.8198066,
    "lng": -71.395703,
    "violation_count": 3
  },
  {
    "id": "938281",
    "name": "PLAYA BOWLS NEWPORT",
    "address": "201 GODDARD ROW NEWPORT RI 02840",
    "last_inspection": "02-17-2026",
    "license_type": "Seats -  Less than 50",
    "lat": 41.489326,
    "lng": -71.315967,
    "violation_count": 2
  },
  {
    "id": "938460",
    "name": "CAVA",
    "address": "2 CHAPEL VIEW BLVD CRANSTON RI 02920",
    "last_inspection": "02-17-2026",
    "license_type": "Seats -  Less than 50",
    "lat": 41.75616213804,
    "lng": -71.461591128336,
    "violation_count": 0
  },
  {
    "id": "938493",
    "name": "YELLOW DOOR TAQUERIA",
    "address": "191 DORRANCE STREET PROVIDENCE RI 02903",
    "last_inspection": "02-17-2026",
    "license_type": "Caterer or Commissary",
    "lat": 41.8220196,
    "lng": -71.4097063,
    "violation_count": 1
  },
  {
    "id": "938575",
    "name": "VINDU",
    "address": "356 MENDON RD CUMBERLAND RI 02864",
    "last_inspection": "02-17-2026",
    "license_type": "Seats - 50 or More",
    "lat": 41.9412365,
    "lng": -71.3802679,
    "violation_count": 1
  },
  {
    "id": "939327",
    "name": "CENTRAL FALLS HIGH SCHOOL",
    "address": "10 HIGGINSON AVE CENTRAL FALLS RI 02863",
    "last_inspection": "02-17-2026",
    "license_type": "Food Service (Non-Profit)",
    "lat": 41.8861618,
    "lng": -71.4056215,
    "violation_count": 2
  },
  {
    "id": "240405",
    "name": "DUNKIN DONUTS",
    "address": "26 JEFFERSON BOULEVARD WARWICK RI 02886",
    "last_inspection": "02-16-2026",
    "license_type": "Seats -  Less than 50",
    "lat": 41.7534896,
    "lng": -71.4361207,
    "violation_count": 1
  },
  {
    "id": "251365",
    "name": "FELLINI CAFE & PIZZERIA",
    "address": "166 WICKENDEN STREET PROVIDENCE RI 02903",
    "last_inspection": "02-16-2026",
    "license_type": "Seats -  Less than 50",
    "lat": 41.8193461,
    "lng": -71.4000632,
    "violation_count": 4
  },
  {
    "id": "255636",
    "name": "LUCKY HOUSE RESTAURANT",
    "address": "32 MAIN STREET HOPKINTON RI 02804",
    "last_inspection": "02-16-2026",
    "license_type": "Seats - 50 or More",
    "lat": 41.4033148,
    "lng": -71.7978591,
    "violation_count": 0
  },
  {
    "id": "256196",
    "name": "STARBUCKS COFFEE NO 9925",
    "address": "622 GEORGE WASHINGTON HWY LINCOLN RI 02865",
    "last_inspection": "02-16-2026",
    "license_type": "Seats -  Less than 50",
    "lat": 41.934526,
    "lng": -71.4638251,
    "violation_count": 2
  },
  {
    "id": "258094",
    "name": "EFFIE FILIPPOUS TWISTED PIZZA",
    "address": "UNIT 107 EXETER RI 02822",
    "last_inspection": "02-16-2026",
    "license_type": "Seats -  Less than 50",
    "lat": 41.5774793,
    "lng": -71.5376881,
    "violation_count": 5
  },
  {
    "id": "259384",
    "name": "TRADER JOES NO 518",
    "address": "1000 BALD HILL ROAD WARWICK RI 02886",
    "last_inspection": "02-16-2026",
    "license_type": "Cash Registers - 6 or more",
    "lat": 41.7127435,
    "lng": -71.4884895,
    "violation_count": 2
  },
  {
    "id": "259792",
    "name": "DOMINOS PIZZA",
    "address": "739 HARTFORD AVENUE PROVIDENCE RI 02909",
    "last_inspection": "02-16-2026",
    "license_type": "Seats -  Less than 50",
    "lat": 41.8200454,
    "lng": -71.4700053,
    "violation_count": 2
  },
  {
    "id": "260104",
    "name": "FOUR CORNERS GRILLE",
    "address": "3841 MAIN ROAD TIVERTON RI 02878",
    "last_inspection": "02-16-2026",
    "license_type": "Seats -  Less than 50",
    "lat": 41.5718817,
    "lng": -71.1883119,
    "violation_count": 6
  },
  {
    "id": "260332",
    "name": "HERCULES PIZZA WORKS",
    "address": "1525 OLD LOUISQUISSET PIKE  LINCOLN RI 02865",
    "last_inspection": "02-16-2026",
    "license_type": "Seats - 50 or More",
    "lat": 41.8859512,
    "lng": -71.4390512,
    "violation_count": 5
  },
  {
    "id": "262837",
    "name": "THE POINT TAVERN",
    "address": "302 WICKENDEN ST PROVIDENCE RI 02903",
    "last_inspection": "02-16-2026",
    "license_type": "Seats -  Less than 50",
    "lat": 41.8196308,
    "lng": -71.3971397,
    "violation_count": 7
  },
  {
    "id": "263761",
    "name": "AVVIO",
    "address": "1 PAPA RAZZI WAY CRANSTON RI 02920",
    "last_inspection": "02-16-2026",
    "license_type": "Seats - 50 or More",
    "lat": 41.7617762,
    "lng": -71.4577959,
    "violation_count": 2
  },
  {
    "id": "414797",
    "name": "SOPHIES BREW HOUSE",
    "address": "699 S COUNTY TRAIL EXETER RI 02822",
    "last_inspection": "02-16-2026",
    "license_type": "Seats -  Less than 50",
    "lat": 41.5184992,
    "lng": -71.5548701,
    "violation_count": 3
  },
  {
    "id": "414991",
    "name": "PARK AVENUE SENIOR CARE INC",
    "address": "1049 PARK AVE CRANSTON RI 02910",
    "last_inspection": "02-16-2026",
    "license_type": "Seats - 50 or More",
    "lat": 41.782315,
    "lng": -71.444254,
    "violation_count": 2
  },
  {
    "id": "663261",
    "name": "JACKYS GALAXIE RESTAURANT",
    "address": "FOOD COURT TIVERTON RI 02878",
    "last_inspection": "02-16-2026",
    "license_type": "Seats -  Less than 50",
    "lat": 41.6257406,
    "lng": -71.166333,
    "violation_count": 4
  },
  {
    "id": "771160",
    "name": "KWENCH JUICE CAFE",
    "address": "155 WESTMINSTER ST PROVIDENCE RI 02903",
    "last_inspection": "02-16-2026",
    "license_type": "Seats -  Less than 50",
    "lat": 41.8238135,
    "lng": -71.4115604,
    "violation_count": 8
  },
  {
    "id": "771212",
    "name": "MOOYAH BURGERS FRIES AND SHAKES",
    "address": "777 TIVERTON CASINO BLVD TIVERTON RI 02878",
    "last_inspection": "02-16-2026",
    "license_type": "Seats -  Less than 50",
    "lat": 41.6615524,
    "lng": -71.1575859,
    "violation_count": 2
  },
  {
    "id": "771316",
    "name": "FUNDATI COFFEE",
    "address": "1525 OLD LOUISQUISSETT PK LINCOLN RI 02865",
    "last_inspection": "02-16-2026",
    "license_type": "Seats -  Less than 50",
    "lat": 41.8859161,
    "lng": -71.43927,
    "violation_count": 5
  },
  {
    "id": "771555",
    "name": "KH MART LLC",
    "address": "1081 ATWELLS AVE PROVIDENCE RI 02909",
    "last_inspection": "02-16-2026",
    "license_type": "Cash Registers - 1-2",
    "lat": 41.8253793,
    "lng": -71.4533321,
    "violation_count": 5
  },
  {
    "id": "789645",
    "name": "RIVIERA RESTAURANT AND BANQUET",
    "address": "580 N BROADWAY EAST PROVIDENCE RI 02914",
    "last_inspection": "02-16-2026",
    "license_type": "Seats - 50 or More",
    "lat": 41.8275727,
    "lng": -71.3634607,
    "violation_count": 7
  },
  {
    "id": "856608",
    "name": "MAHANT BREAD N STUFF INC",
    "address": "1669 MAIN ST WEST WARWICK RI 02893",
    "last_inspection": "02-16-2026",
    "license_type": "Cash Registers - 1-2",
    "lat": 41.686678,
    "lng": -71.5230382,
    "violation_count": 3
  },
  {
    "id": "865601",
    "name": "BRIGIDOS FRESH MARKET",
    "address": "25 VILLAGE PLAZA WAY NORTH SCITUATE RI 02857",
    "last_inspection": "02-16-2026",
    "license_type": "Cash Registers - 3-5",
    "lat": 41.8357121,
    "lng": -71.572805,
    "violation_count": 4
  },
  {
    "id": "865687",
    "name": "JERSEY MIKES SUBS",
    "address": "75 NEWPORT AVE RUMFORD RI 02916",
    "last_inspection": "02-16-2026",
    "license_type": "Seats -  Less than 50",
    "lat": 41.8531981,
    "lng": -71.3543678,
    "violation_count": 0
  },
  {
    "id": "865763",
    "name": "HIBACHI GRILL SUPREME BUFFET",
    "address": "58A NEWPORT AVENUE RUMFORD RI 02916",
    "last_inspection": "02-16-2026",
    "license_type": "Seats - 50 or More",
    "lat": 41.8531981,
    "lng": -71.3543678,
    "violation_count": 0
  },
  {
    "id": "865991",
    "name": "CHIPOTLE  MEXICAN RESTAURANT",
    "address": "75 NEWPORT AVENUE RUMFORD RI 02916",
    "last_inspection": "02-16-2026",
    "license_type": "Seats - 50 or More",
    "lat": 41.8531981,
    "lng": -71.3543678,
    "violation_count": 1
  },
  {
    "id": "866532",
    "name": "JACK'S PIZZA PUB",
    "address": "970 DOUGLAS PIKE SMITHFIELD RI 02917",
    "last_inspection": "02-16-2026",
    "license_type": "Seats - 50 or More",
    "lat": 41.915935,
    "lng": -71.5205544,
    "violation_count": 5
  },
  {
    "id": "937337",
    "name": "KENTUCKY FRIED CHICKEN",
    "address": "160 GRANITE STREET WESTERLY RI 02891",
    "last_inspection": "02-16-2026",
    "license_type": "Seats -  Less than 50",
    "lat": 41.3682576,
    "lng": -71.8193488,
    "violation_count": 2
  },
  {
    "id": "938366",
    "name": "WINGSTOP",
    "address": "75 NEWPORT AVE RUMFORD RI 02916",
    "last_inspection": "02-16-2026",
    "license_type": "Seats -  Less than 50",
    "lat": 41.8531981,
    "lng": -71.3543678,
    "violation_count": 0
  },
  {
    "id": "939125",
    "name": "BLACK DOG TAVERN INC",
    "address": "566 PUTNAM PIKE SMITHFIELD RI 02828",
    "last_inspection": "02-16-2026",
    "license_type": "Seats - 50 or More",
    "lat": 41.8709062,
    "lng": -71.5505953,
    "violation_count": 11
  },
  {
    "id": "939182",
    "name": "THE FRESH MONKEE",
    "address": "9 CEDAR SWAMP RD SMITHFIELD RI 02917",
    "last_inspection": "02-16-2026",
    "license_type": "Seats -  Less than 50",
    "lat": 41.8744648,
    "lng": -71.5328712,
    "violation_count": 15
  },
  {
    "id": "939244",
    "name": "HOMETOWN PIZZA SUBS & WIENERS",
    "address": "1207 MAIN STREET WEST WARWICK RI 02893",
    "last_inspection": "02-16-2026",
    "license_type": "Seats -  Less than 50",
    "lat": 41.7040236,
    "lng": -71.5243941,
    "violation_count": 0
  },
  {
    "id": "258996",
    "name": "WATERMAN GRILLE",
    "address": "4 RICHMOND SQUARE PROVIDENCE RI 02906",
    "last_inspection": "02-15-2026",
    "license_type": "Caterer or Commissary",
    "lat": 41.8271381,
    "lng": -71.3809373,
    "violation_count": 0
  },
  {
    "id": "247226",
    "name": "SUPER STOP AND SHOP NO 721",
    "address": "595 SMITHFIELD ROAD NORTH SMITHFIELD RI 02896",
    "last_inspection": "02-13-2026",
    "license_type": "Cash Registers - 6 or more",
    "lat": 41.9834016,
    "lng": -71.5174307,
    "violation_count": 4
  },
  {
    "id": "413899",
    "name": "ZOOM MART",
    "address": "3492 MENDON RD CUMBERLAND RI 02864",
    "last_inspection": "02-13-2026",
    "license_type": "Cash Registers - 1-2",
    "lat": 41.9791134,
    "lng": -71.4623755,
    "violation_count": 2
  },
  {
    "id": "771087",
    "name": "BURGER KING NO 8576",
    "address": "155 THURBERS AVE PROVIDENCE RI 029053030",
    "last_inspection": "02-13-2026",
    "license_type": "Seats - 50 or More",
    "lat": 41.7999216,
    "lng": -71.4060264,
    "violation_count": 0
  },
  {
    "id": "789598",
    "name": "HONDURAS RESTAURANT LLC",
    "address": "175 MANTON AVE FL1 PROVIDENCE RI 02909",
    "last_inspection": "03-09-2026",
    "license_type": "Seats -  Less than 50",
    "lat": 41.82012801501,
    "lng": -71.446781011974,
    "violation_count": 4
  },
  {
    "id": "939200",
    "name": "401 OYSTER COMPANY",
    "address": "9 EAST AVE WESTERLY RI 02891",
    "last_inspection": "02-13-2026",
    "license_type": "Caterer or Commissary",
    "lat": 41.3667467,
    "lng": -71.8193558,
    "violation_count": 0
  },
  {
    "id": "939245",
    "name": "FRESH HARVEST KITCHEN",
    "address": "9 EAST AVE UNIT F WESTERLY RI 02891",
    "last_inspection": "02-13-2026",
    "license_type": "Caterer or Commissary",
    "lat": 41.366764069201,
    "lng": -71.819312145972,
    "violation_count": 0
  },
  {
    "id": "239237",
    "name": "WICKFORD MIDDLE SCHOOL",
    "address": "250 TOWER HILL ROAD NORTH KINGSTOWN RI 02852",
    "last_inspection": "02-12-2026",
    "license_type": "Food Service (Non-Profit)",
    "lat": 41.5675096,
    "lng": -71.4603068,
    "violation_count": 1
  },
  {
    "id": "241194",
    "name": "STEERE FARM ELEMENTARY",
    "address": "915 STEERE FARM ROAD BURRILLVILLE RI 02830",
    "last_inspection": "02-12-2026",
    "license_type": "Food Service (Non-Profit)",
    "lat": 41.9386026,
    "lng": -71.6747938,
    "violation_count": 0
  },
  {
    "id": "241284",
    "name": "FOREST AVENUE SCHOOL",
    "address": "315 FOREST AVENUE MIDDLETOWN RI 02842",
    "last_inspection": "02-12-2026",
    "license_type": "Food Service (Non-Profit)",
    "lat": 41.5256099,
    "lng": -71.2859544,
    "violation_count": 2
  },
  {
    "id": "244439",
    "name": "FALLON MEMORIAL SCHOOL",
    "address": "62 LINCOLN LANE PAWTUCKET RI 02860",
    "last_inspection": "02-12-2026",
    "license_type": "Food Service (Non-Profit)",
    "lat": 41.869015061242,
    "lng": -71.360624173156,
    "violation_count": 1
  },
  {
    "id": "244851",
    "name": "CUNNINGHAM ELEMENTARY SCHOOL",
    "address": "40 BALDWIN STREET PAWTUCKET RI 02860",
    "last_inspection": "02-12-2026",
    "license_type": "Food Service (Non-Profit)",
    "lat": 41.875167,
    "lng": -71.401686,
    "violation_count": 1
  },
  {
    "id": "244877",
    "name": "SAMUEL SLATERS JR HIGH SCHOOL",
    "address": "281 MINERAL SPRING AVENUE PAWTUCKET RI 02860",
    "last_inspection": "02-12-2026",
    "license_type": "Food Service (Non-Profit)",
    "lat": 41.8742665,
    "lng": -71.4003342,
    "violation_count": 0
  },
  {
    "id": "244991",
    "name": "SHEA HIGH SCHOOL",
    "address": "485 EAST AVENUE PAWTUCKET RI 02861",
    "last_inspection": "02-12-2026",
    "license_type": "Food Service (Non-Profit)",
    "lat": 41.865391,
    "lng": -71.38745,
    "violation_count": 2
  },
  {
    "id": "245304",
    "name": "CENTRAL HIGH SCHOOL",
    "address": "70 FRICKER STREET PROVIDENCE RI 02903",
    "last_inspection": "02-12-2026",
    "license_type": "Food Service (Non-Profit)",
    "lat": 41.8165244,
    "lng": -71.4215915,
    "violation_count": 3
  },
  {
    "id": "246028",
    "name": "LITTLE COUNTRY PIZZA INC",
    "address": "349 NOOSENECK HILL ROAD EXETER RI 02822",
    "last_inspection": "02-12-2026",
    "license_type": "Seats -  Less than 50",
    "lat": 41.5787432,
    "lng": -71.6541295,
    "violation_count": 2
  },
  {
    "id": "252260",
    "name": "CELESTIAL CAFE",
    "address": "OAK HARBOR VILLAGE EXETER RI 02822",
    "last_inspection": "02-12-2026",
    "license_type": "Seats - 50 or More",
    "lat": 41.526853,
    "lng": -71.551244,
    "violation_count": 9
  },
  {
    "id": "259953",
    "name": "TIGGERS RESTAURANT",
    "address": "429 BENEFIT STREET PAWTUCKET RI 02860",
    "last_inspection": "02-12-2026",
    "license_type": "Seats -  Less than 50",
    "lat": 41.892063,
    "lng": -71.353917,
    "violation_count": 2
  },
  {
    "id": "261047",
    "name": "OCEAN STATE JOB LOT",
    "address": "1441 ELMWOOD AVENUE CRANSTON RI 02910",
    "last_inspection": "02-12-2026",
    "license_type": "Cash Registers - 6 or more",
    "lat": 41.7680447,
    "lng": -71.424684,
    "violation_count": 1
  },
  {
    "id": "262002",
    "name": "JERSEY MIKES SUBS",
    "address": "782 WARWICK AVENUE WARWICK RI 02888",
    "last_inspection": "02-12-2026",
    "license_type": "Seats -  Less than 50",
    "lat": 41.7545088,
    "lng": -71.4042195,
    "violation_count": 1
  },
  {
    "id": "262984",
    "name": "WENDYS",
    "address": "771 WARWICK AVE WARWICK RI 02888",
    "last_inspection": "02-12-2026",
    "license_type": "Seats - 50 or More",
    "lat": 41.7548747,
    "lng": -71.4049518,
    "violation_count": 0
  },
  {
    "id": "263859",
    "name": "LANGS BOWLARAMA",
    "address": "225 NIANTIC AVE CRANSTON RI 02907",
    "last_inspection": "02-12-2026",
    "license_type": "Seats -  Less than 50",
    "lat": 41.7972357,
    "lng": -71.4394551,
    "violation_count": 4
  },
  {
    "id": "264594",
    "name": "QUINNS IRISH PUB",
    "address": "433 BENEFIT ST PAWTUCKET RI 02861",
    "last_inspection": "02-12-2026",
    "license_type": "Seats -  Less than 50",
    "lat": 41.8920535,
    "lng": -71.353759,
    "violation_count": 1
  },
  {
    "id": "415151",
    "name": "TRI COUNTY COMMUNITY ACTION NK HEAD START",
    "address": "415 TOWER HILL RD NORTH KINGSTOWN RI 02852",
    "last_inspection": "02-12-2026",
    "license_type": "Food Service (Non-Profit)",
    "lat": 41.5637703,
    "lng": -71.4649883,
    "violation_count": 0
  },
  {
    "id": "663511",
    "name": "THE SANDRA FEINSTEIN GAMM THEATRE",
    "address": "1245 JEFFERSON BLVD WARWICK RI 02886",
    "last_inspection": "02-12-2026",
    "license_type": "Food Service (Non-Profit)",
    "lat": 41.7142279,
    "lng": -71.4481524,
    "violation_count": 0
  },
  {
    "id": "663548",
    "name": "ALDI",
    "address": "1386 ATWOOD AVE JOHNSTON RI 02919",
    "last_inspection": "02-12-2026",
    "license_type": "Cash Registers - 3-5",
    "lat": 41.815366,
    "lng": -71.4966776,
    "violation_count": 2
  },
  {
    "id": "714308",
    "name": "ANCHOR BAY AT POCASSET",
    "address": "12 OLD POCASSET LN JOHNSTON RI 02919",
    "last_inspection": "02-12-2026",
    "license_type": "Seats - 50 or More",
    "lat": 41.824057,
    "lng": -71.508376,
    "violation_count": 0
  },
  {
    "id": "856704",
    "name": "TAVERN IN THE SQUARE EAST GREENWICH",
    "address": "1000 DIVISION RD EAST GREENWICH RI 02818",
    "last_inspection": "03-09-2026",
    "license_type": "Seats - 50 or More",
    "lat": 41.6623894,
    "lng": -71.495042,
    "violation_count": 1
  },
  {
    "id": "937737",
    "name": "AZUL TEQUILA BAR & MEXICAN GRILL",
    "address": "2 GEORGE STREET PAWTUCKET RI 02860",
    "last_inspection": "02-12-2026",
    "license_type": "Seats - 50 or More",
    "lat": 41.874808,
    "lng": -71.387169,
    "violation_count": 4
  },
  {
    "id": "938025",
    "name": "CASPIAN KITCHEN",
    "address": "1995 POST RD. WARWICK RI 02886",
    "last_inspection": "02-12-2026",
    "license_type": "Seats -  Less than 50",
    "lat": 41.727427,
    "lng": -71.438631,
    "violation_count": 1
  },
  {
    "id": "939261",
    "name": "BRAVO BREWING COMPANY",
    "address": "75 PASCOAG MAIN ST PASCOAG RI 02859",
    "last_inspection": "02-12-2026",
    "license_type": "Caterer or Commissary",
    "lat": 41.9560882,
    "lng": -71.7019048,
    "violation_count": 3
  },
  {
    "id": "939284",
    "name": "MAC IT COUNT",
    "address": "5  DORO PL RUMFORD RI 02916",
    "last_inspection": "02-12-2026",
    "license_type": "Cottage Food Manufacture",
    "lat": 41.8347153,
    "lng": -71.3488836,
    "violation_count": 0
  },
  {
    "id": "939323",
    "name": "TWISTED PIZZA OF WARWICK",
    "address": "2077 WEST SHORE RD WARWICK RI 02889",
    "last_inspection": "02-12-2026",
    "license_type": "Seats -  Less than 50",
    "lat": 41.7009274,
    "lng": -71.3968753,
    "violation_count": 0
  },
  {
    "id": "939333",
    "name": "AQUIDNECK HONEY",
    "address": "158 SYCAMORE LANE WESTPORT MA 02790",
    "last_inspection": "02-12-2026",
    "license_type": "Mobile Food Service",
    "lat": 41.6200559,
    "lng": -71.1212786,
    "violation_count": 0
  },
  {
    "id": "939335",
    "name": "FEASTY VEGAN",
    "address": "62B SOUTH ST MORRISTOWN NJ 07960",
    "last_inspection": "02-12-2026",
    "license_type": "Mobile Food Service",
    "lat": 40.7959139,
    "lng": -74.4805992,
    "violation_count": 0
  },
  {
    "id": "939337",
    "name": "VEEGMYEATS",
    "address": "134 LAWRENCE STREET HARTFORD CT 06106",
    "last_inspection": "02-12-2026",
    "license_type": "Mobile Food Service",
    "lat": 41.7599905,
    "lng": -72.6878599,
    "violation_count": 0
  },
  {
    "id": "939342",
    "name": "COOKIES BY SIENNA",
    "address": "55 FALCON LN CRANSTON RI 02921",
    "last_inspection": "02-12-2026",
    "license_type": "Cottage Food Manufacture",
    "lat": 41.784648228372,
    "lng": -71.53682736818,
    "violation_count": 0
  },
  {
    "id": "239128",
    "name": "CENTERDALE ELEMENTARY",
    "address": "41 ANGELL AVENUE NORTH PROVIDENCE RI 02911",
    "last_inspection": "02-11-2026",
    "license_type": "Food Service (Non-Profit)",
    "lat": 41.8573687,
    "lng": -71.4767819,
    "violation_count": 2
  },
  {
    "id": "239146",
    "name": "NORTH PROVIDENCE HIGH SCHOOL",
    "address": "1828 MINERAL SPRING AVENUE NORTH PROVIDENCE RI 02904",
    "last_inspection": "02-11-2026",
    "license_type": "Food Service (Non-Profit)",
    "lat": 41.8599823,
    "lng": -71.4593133,
    "violation_count": 1
  },
  {
    "id": "239229",
    "name": "MATUNUCK ELEMENTARY",
    "address": "310 MATUNUCK BEACH SOUTH KINGSTOWN RI 02879",
    "last_inspection": "02-11-2026",
    "license_type": "Food Service (Non-Profit)",
    "lat": 41.3882061,
    "lng": -71.5495858,
    "violation_count": 3
  },
  {
    "id": "242981",
    "name": "PARK ELEMENTARY SCHOOL",
    "address": "40 ASYLUM ROAD WARWICK RI 02886",
    "last_inspection": "02-11-2026",
    "license_type": "Food Service (Non-Profit)",
    "lat": 41.693331,
    "lng": -71.419137,
    "violation_count": 1
  },
  {
    "id": "244666",
    "name": "PORTUGUESE AMERICAN CITIZENS CLUB",
    "address": "97 EAST MAIN STREET WEST WARWICK RI 02893",
    "last_inspection": "02-11-2026",
    "license_type": "Seats -  Less than 50",
    "lat": 41.7137385,
    "lng": -71.5177409,
    "violation_count": 0
  },
  {
    "id": "244681",
    "name": "CHARIHO CAREER & TECHNICAL SCHOOL",
    "address": "459 SWITCH ROAD RICHMOND RI 02894",
    "last_inspection": "02-11-2026",
    "license_type": "Food Service (Non-Profit)",
    "lat": 41.4483134,
    "lng": -71.6956209,
    "violation_count": 2
  },
  {
    "id": "251516",
    "name": "ALBANESES DELIZIOSO INC",
    "address": "1288 OAKLAWN AVENUE CRANSTON RI 02920",
    "last_inspection": "02-11-2026",
    "license_type": "Seats -  Less than 50",
    "lat": 41.7344705,
    "lng": -71.4770948,
    "violation_count": 3
  },
  {
    "id": "255917",
    "name": "PIZZA FAIR, THE",
    "address": "685 PARK AVENUE CRANSTON RI 02910",
    "last_inspection": "02-11-2026",
    "license_type": "Seats -  Less than 50",
    "lat": 41.7774507,
    "lng": -71.4279077,
    "violation_count": 4
  },
  {
    "id": "255942",
    "name": "ELEANOR BRIGGS SCHOOL",
    "address": "116 LONG STREET WARWICK RI 02886",
    "last_inspection": "02-11-2026",
    "license_type": "Food Service (Non-Profit)",
    "lat": 41.6963446,
    "lng": -71.4315334,
    "violation_count": 1
  },
  {
    "id": "257811",
    "name": "THE GRILL - FORTY ONE DEGREES NORTH",
    "address": "351 THAMES STREET NEWPORT RI 02840",
    "last_inspection": "02-11-2026",
    "license_type": "Seats - 50 or More",
    "lat": 41.4843141,
    "lng": -71.3148022,
    "violation_count": 11
  },
  {
    "id": "260783",
    "name": "PROVIDENCE CAREER AND TECHNOLOGY HIGH SCHOOL",
    "address": "41 FRICKER STREET PROVIDENCE RI 02903",
    "last_inspection": "02-11-2026",
    "license_type": "Food Service (Non-Profit)",
    "lat": 41.8159295,
    "lng": -71.4225729,
    "violation_count": 2
  },
  {
    "id": "263372",
    "name": "THE GREENE SCHOOL",
    "address": "UNIT #3 WEST GREENWICH RI 02817",
    "last_inspection": "02-11-2026",
    "license_type": "Food Service (Non-Profit)",
    "lat": 41.6226185,
    "lng": -71.6657892,
    "violation_count": 0
  },
  {
    "id": "264096",
    "name": "CLUB STAR 67",
    "address": "602 SMITHFIELD AVE PAWTUCKET RI 02860",
    "last_inspection": "02-11-2026",
    "license_type": "Seats - 50 or More",
    "lat": 41.879438,
    "lng": -71.41564,
    "violation_count": 3
  },
  {
    "id": "264362",
    "name": "AMIGOS",
    "address": "2 CANAL ST WESTERLY RI 02891",
    "last_inspection": "02-11-2026",
    "license_type": "Seats - 50 or More",
    "lat": 41.379573,
    "lng": -71.829857,
    "violation_count": 2
  },
  {
    "id": "264454",
    "name": "MCBRIDES IRISH PUB",
    "address": "161 WAYLAND AVE PROVIDENCE RI 02906",
    "last_inspection": "02-11-2026",
    "license_type": "Caterer or Commissary",
    "lat": 41.8289483,
    "lng": -71.3881138,
    "violation_count": 2
  },
  {
    "id": "358419",
    "name": "CALIFORNIA TACO SHOP",
    "address": "2168 ELMWOOD AVE WARWICK RI 02888",
    "last_inspection": "02-11-2026",
    "license_type": "Seats -  Less than 50",
    "lat": 41.7485419,
    "lng": -71.4222847,
    "violation_count": 2
  },
  {
    "id": "414292",
    "name": "ALIA MARKET INC",
    "address": "384 ELMWOOD AVE PROVIDENCE RI 02907",
    "last_inspection": "02-11-2026",
    "license_type": "Cash Registers - 1-2",
    "lat": 41.8017567,
    "lng": -71.4261485,
    "violation_count": 1
  },
  {
    "id": "414539",
    "name": "HOPE DINER",
    "address": "742 HOPE ST BRISTOL RI 02809",
    "last_inspection": "02-11-2026",
    "license_type": "Seats -  Less than 50",
    "lat": 41.6758569,
    "lng": -71.2784124,
    "violation_count": 3
  },
  {
    "id": "415064",
    "name": "ORIGINAL HOUSE OF PIZZA",
    "address": "1431 DIAMOND HILL RD WOONSOCKET RI 02895",
    "last_inspection": "02-11-2026",
    "license_type": "Seats -  Less than 50",
    "lat": 42.015544,
    "lng": -71.4799665,
    "violation_count": 4
  },
  {
    "id": "415284",
    "name": "POPEYES",
    "address": "1507 DIAMOND HILL RD WOONSOCKET RI 02895",
    "last_inspection": "02-11-2026",
    "license_type": "Seats - 50 or More",
    "lat": 42.015248,
    "lng": -71.4785021,
    "violation_count": 3
  },
  {
    "id": "612555",
    "name": "PHO SAIGON AND BAR",
    "address": "1106 PONTIAC AVE CRANSTON RI 02920",
    "last_inspection": "02-11-2026",
    "license_type": "Seats -  Less than 50",
    "lat": 41.754291,
    "lng": -71.4478094,
    "violation_count": 2
  },
  {
    "id": "663424",
    "name": "BUONOS BAKERY CAFE",
    "address": "567 RESERVOIR AVE CRANSTON RI 02910",
    "last_inspection": "02-11-2026",
    "license_type": "Cash Registers - 1-2",
    "lat": 41.783309,
    "lng": -71.438377,
    "violation_count": 1
  },
  {
    "id": "663568",
    "name": "THE RHODY HEN CAFE",
    "address": "350 PROSPECT ST PAWTUCKET RI 02860",
    "last_inspection": "02-11-2026",
    "license_type": "Seats -  Less than 50",
    "lat": 41.8668242,
    "lng": -71.3743157,
    "violation_count": 3
  },
  {
    "id": "714049",
    "name": "PAPA GINOS",
    "address": "1750 DIAMOND HILL RD WOONSOCKET RI 02895",
    "last_inspection": "02-11-2026",
    "license_type": "Seats - 50 or More",
    "lat": 42.015728,
    "lng": -71.4741247,
    "violation_count": 3
  },
  {
    "id": "770743",
    "name": "SHELTER HARBOR INN",
    "address": "10 WAGNER RD WESTERLY RI 02891",
    "last_inspection": "02-11-2026",
    "license_type": "Seats - 50 or More",
    "lat": 41.3473899,
    "lng": -71.735351,
    "violation_count": 0
  },
  {
    "id": "771416",
    "name": "CHARUMA",
    "address": "45 WEYBOSSET ST PROVIDENCE RI 02903",
    "last_inspection": "02-11-2026",
    "license_type": "Seats -  Less than 50",
    "lat": 41.824934,
    "lng": -71.4095404,
    "violation_count": 6
  },
  {
    "id": "771461",
    "name": "BEST WESTERN WEST GREENWICH INN",
    "address": "99 NOOSENECK HILL RD WEST GREENWICH RI 02817",
    "last_inspection": "02-11-2026",
    "license_type": "Seats -  Less than 50",
    "lat": 41.6531291,
    "lng": -71.6072233,
    "violation_count": 2
  },
  {
    "id": "789919",
    "name": "RISING SUN",
    "address": "25 PACE BLVD WARWICK RI 02886",
    "last_inspection": "02-11-2026",
    "license_type": "Food Processor Retail - In-State",
    "lat": 41.7023312,
    "lng": -71.4965389,
    "violation_count": 0
  },
  {
    "id": "790042",
    "name": "EUGENIA",
    "address": "1300 HARTFORD AVE JOHNSTON RI 02919",
    "last_inspection": "02-11-2026",
    "license_type": "Food Processor Retail - In-State",
    "lat": 41.823134,
    "lng": -71.49279,
    "violation_count": 0
  },
  {
    "id": "856722",
    "name": "EL MARINERO",
    "address": "137 KILVERT ST WARWICK RI 02886",
    "last_inspection": "02-11-2026",
    "license_type": "Seats - 50 or More",
    "lat": 41.7299658,
    "lng": -71.4430512,
    "violation_count": 4
  },
  {
    "id": "856824",
    "name": "NY PIZZA OF RI",
    "address": "328 MAIN ST WAKEFIELD RI 02879",
    "last_inspection": "02-11-2026",
    "license_type": "Seats -  Less than 50",
    "lat": 41.4384856,
    "lng": -71.4990867,
    "violation_count": 3
  },
  {
    "id": "857176",
    "name": "NEW WAVE KITCHEN LLC",
    "address": "359 MAIN ST WAKEFIELD RI 02879",
    "last_inspection": "02-11-2026",
    "license_type": "Seats -  Less than 50",
    "lat": 41.4379473,
    "lng": -71.4999996,
    "violation_count": 1
  },
  {
    "id": "857444",
    "name": "THE SOCIAL KITCHEN INC",
    "address": "1449 MINERAL SPRING AVE NORTH PROVIDENCE RI 02904",
    "last_inspection": "02-11-2026",
    "license_type": "Caterer or Commissary",
    "lat": 41.8661618,
    "lng": -71.4430294,
    "violation_count": 8
  },
  {
    "id": "865590",
    "name": "CAPITAL CAFE LLC D/B/A SYDNEY PVD CAFE",
    "address": "400 EXCHANGE ST UNIT F PROVIDENCE RI 02903",
    "last_inspection": "02-11-2026",
    "license_type": "Seats -  Less than 50",
    "lat": 41.827812194971,
    "lng": -71.412862287051,
    "violation_count": 1
  },
  {
    "id": "936952",
    "name": "LITTLE THAI CORNER",
    "address": "416 BUTTONWOODS AVENUE WARWICK RI 02886",
    "last_inspection": "02-11-2026",
    "license_type": "Seats -  Less than 50",
    "lat": 41.6958229,
    "lng": -71.427649,
    "violation_count": 0
  },